ADDRESS,LATITUDE,LONGITUDE,POSTAL_CODE
681B woodlands drive 62,1.43932470475883,103.803324088659,732681
264 bishan street 24,1.35865897891792,103.842049817206,570264
520 jelapang road,1.38646757937131,103.7665076,670520
121B edgedale plains,1.39308870276065,103.909041773266,822121
997B buangkok crescent,1.38590156781199,103.881387,532997
377 clementi avenue 5,1.31756398951141,103.767975202583,120377
454 fajar road,1.38450243119902,103.771537431563,670454
92 bedok north avenue 4,1.33244414877355,103.941297978178,460092
168A punggol east,1.39458916861034,103.914238786983,821168
675D yishun avenue 4,1.41973757505546,103.842703126999,764675
453B fernvale road,1.3942988861693,103.875110781799,792453
27 dover crescent,1.30542278278875,103.781320435431,130027
647 punggol central,1.39806307135608,103.915453266532,820647
207 bukit batok street 21,1.34624866176031,103.749382188265,650207
513 woodlands drive 14,1.43386698574021,103.789472977537,730513
228B compassvale walk,1.38796200657488,103.90137391797,542228
128 pasir ris street 11,1.36607200208533,103.955614245139,510128
138B lorong 1a toa payoh,1.33626408939965,103.845626191384,312138
571C woodlands avenue 1,1.43037573758391,103.789927860576,733571
338 ubi avenue 1,1.32613973623742,103.902073613523,400338
323D sumang walk,1.41218811745694,103.897455703032,824323
272D punggol walk,1.40273347530835,103.90046347534,824272
408C fernvale road,1.38924471342298,103.876556317593,793408
266A punggol way,1.40596071590593,103.897970713861,821266
342C yishun ring road,1.42991891753486,103.844367469818,763342
28 ghim moh link,1.30887985026284,103.784802916649,270028
134 potong pasir avenue 3,1.33447489186627,103.866286539376,350134
181 bedok north road,1.32668601317692,103.941272008827,460181
51 lorong 6 toa payoh,1.33778337648439,103.852507455855,310051
429A yishun avenue 11,1.42209731725453,103.849560369299,761429
846 tampines street 82,1.35215736918662,103.935923497654,520846
45 telok blangah drive,1.27175707090153,103.809560438327,100045
924 hougang avenue 9,1.37629501553762,103.882146024079,530924
337 bukit batok street 34,1.36348296381773,103.749393361059,650337
465 ang mo kio avenue 10,1.3662010408294,103.857200967235,560465
119A canberra crescent,1.44604755101014,103.831125256006,751119
472 ang mo kio avenue 10,1.36314392666998,103.858118593427,560472
118C jalan membina,1.2821693708226,103.826333715085,163118
101 ang mo kio avenue 3,1.37026158388486,103.839467898898,560101
341 bukit batok street 34,1.36280451951487,103.749157203985,650341
803C keat hong close,1.37338731917488,103.744026034489,683803
649B jurong west street 61,1.33796673439806,103.698122457656,642649
462 clementi avenue 3,1.31109876019725,103.765906379277,120462
862 tampines street 83,1.35468486241786,103.936502887927,520862
205 marsiling drive,1.4449461460443,103.773484126567,730205
231 compassvale walk,1.38953316865049,103.901395398008,540231
201 toa payoh north,1.34113803607795,103.850126597142,310201
818A choa chu kang avenue 1,1.37762936263123,103.748488766609,681818
285 tampines street 22,1.35001074194263,103.952816059954,520285
160 woodlands street 13,1.43333328424957,103.774921567416,730160
157D rivervale crescent,1.38808661373417,103.907889077676,544157
61 telok blangah heights,1.27570500784019,103.812007084346,100061
184A woodlands street 13,1.43611569878667,103.777087417647,731184
312A anchorvale lane,1.39173374169872,103.885155624264,541312
116B jalan tenteram,1.32754908001444,103.860807411661,322116
812 tampines avenue 4,1.34695403231693,103.937332877241,520812
485 jurong west avenue 1,1.3483471084985,103.727243025871,640485
425 bedok north road,1.32936960154503,103.929067536324,460425
105 simei street 1,1.34092459427981,103.950742498791,520105
68 geylang bahru,1.32195385488883,103.869843391813,330068
606 yishun street 61,1.42133417332717,103.836318252115,760606
842 woodlands street 82,1.44343770450452,103.792255388168,730842
325 sembawang crescent,1.44450474363115,103.818706030955,750325
122 paya lebar way,1.32260037517198,103.882463203575,381122
242 hougang street 22,1.35738897663765,103.892167860466,530242
581 pasir ris street 53,1.37494172826975,103.946619114452,510581
914 tampines street 91,1.34902777063214,103.939568394541,520914
91 paya lebar way,1.32268116095086,103.886737921495,370091
588C ang mo kio street 52,1.37183157010083,103.853670978083,563588
64 kallang bahru,1.32034663718702,103.86834750594,330064
167 stirling road,1.29003092983174,103.80260432134,140167
373 hougang street 31,1.36268196108362,103.890391265295,530373
26B saint george's lane,1.32166862124903,103.862717909816,322026
502 bedok north street 3,1.331245062,103.931244293846,460502
574 choa chu kang street 52,1.39441490205275,103.745142689272,680574
523 jelapang road,1.38697502782658,103.765700895316,670523
210 choa chu kang central,1.38252550607593,103.747937128636,680210
187 boon lay avenue,1.34505773588933,103.710699802755,640187
63 kallang bahru,1.32100020851204,103.868321383856,330063
133 edgedale plains,1.39283155421467,103.910620119955,820133
119B rivervale drive,1.38436210947006,103.902965031077,542119
587 ang mo kio avenue 3,1.37018880409798,103.852429487897,560587
61C strathmore avenue,1.29423642591379,103.812035249623,144061
414 woodlands street 41,1.42790632290388,103.773387862138,730414
309 clementi avenue 4,1.32091981411778,103.766377598785,120309
894A tampines street 81,1.34801389150921,103.931916653887,521894
127D kim tian road,1.28111980555052,103.829943174928,164127
606D tampines street 61,1.36185122194834,103.937073184127,524606
172A edgedale plains,1.39533467975268,103.911433937342,821172
286A compassvale crescent,1.39735577803331,103.896193260958,541286
102B punggol field,1.39908525778671,103.905471407838,822102
605 woodlands drive 42,1.43718559497069,103.797090396025,730605
296A bukit batok street 22,1.34409358218354,103.746409176377,651296
758 choa chu kang north 5,1.39317151524526,103.746133684219,680758
2 lorong lew lian,1.35060795612848,103.875680063863,531002
627 senja road,1.38553502172905,103.759378313644,670627
211D compassvale lane,1.38552172050188,103.899866305926,544211
157 jalan teck whye,1.37918786548209,103.756782882659,680157
358 clementi avenue 2,1.31358574940402,103.769084332627,120358
133 pasir ris street 11,1.36572659703752,103.956188045596,510133
309A anchorvale road,1.39170406550677,103.886137355811,541309
336D anchorvale crescent,1.39776902487201,103.888235889907,544336
523A tampines central 7,1.35937098724463,103.938378633561,521523
149 woodlands street 13,1.4357638173206,103.772798008229,730149
244 hougang street 22,1.35807253232842,103.891946844004,530244
432A yishun avenue 1,1.41930728950471,103.847043629046,761432
476D choa chu kang avenue 5,1.37727907968964,103.738418034791,684476
356 woodlands avenue 5,1.43327563349308,103.784971863914,730356
160 yishun street 11,1.43242172081036,103.833430136379,760160
293 bishan street 22,1.35628009744133,103.845894054401,570293
179 bishan street 13,1.34860831209993,103.851843334947,570179
166A punggol central,1.39444866898152,103.915522366152,821166
103 jalan rajah,1.32734143333539,103.852780650365,321103
789 woodlands avenue 6,1.44337046612204,103.802406420773,730789
547 pasir ris street 51,1.3689614816091,103.953357370821,510547
833 yishun street 81,1.41454836310986,103.834104401466,760833
674A jurong west street 65,1.34446133704193,103.702315277328,641674
220 lorong 8 toa payoh,1.34261673404284,103.856454868244,310220
128 lorong 1 toa payoh,1.33781295353996,103.844331928876,310128
311 ubi avenue 1,1.32994110077368,103.903301445157,400311
635A senja road,1.38656225824527,103.757208072494,671635
289A punggol place,1.40157247042169,103.902619076474,821289
3 lorong 7 toa payoh,1.33919545395688,103.854450883864,310003
696 hougang street 61,1.37596449465842,103.887423583259,530696
486 pasir ris drive 4,1.37433415246216,103.960352191633,510486
334 serangoon avenue 3,1.35024124933334,103.870832447555,550334
105 bedok north avenue 4,1.33368859457924,103.936473903592,460105
785D woodlands rise,1.44558289750663,103.80559248917,734785
55 telok blangah drive,1.27396036035569,103.812149525435,100055
279C sengkang east avenue,1.38572932197005,103.892595434586,543279
1E cantonment road,1.27662168427368,103.841156142262,085501
42 chai chee street,1.32797877350561,103.925804792632,461042
501B wellington circle,1.45218571290718,103.821369887884,752501
316B punggol way,1.40894665776408,103.89792554782,822316
335C anchorvale crescent,1.39844903339851,103.888155361419,543335
704 choa chu kang street 53,1.39045874428793,103.745719464356,680704
211 pasir ris street 21,1.36719431144441,103.96115264966,510211
311A clementi avenue 4,1.31911656776897,103.765492195959,121311
45 circuit road,1.32638789366841,103.886077337454,370045
807B chai chee road,1.32750585189984,103.923264046182,462807
426 woodlands street 41,1.42711341742034,103.773283188353,730426
9 boon keng road,1.31605118149851,103.861218698544,330009
363 woodlands avenue 5,1.4339283205204,103.785927938556,730363
117 ang mo kio avenue 4,1.3737170825368,103.835610469339,560117
226B compassvale walk,1.38771174427547,103.899302425122,542226
312 yishun ring road,1.43158235383889,103.8412806,760312
562 hougang street 51,1.38093220261348,103.889121423349,530562
32 chai chee avenue,1.32371728387748,103.92500108451,461032
471B fernvale street,1.39649875629749,103.880447337309,792471
181 edgefield plains,1.39914430474084,103.908983275657,820181
533 ang mo kio avenue 5,1.37416923724326,103.853001920124,560533
207A compassvale lane,1.38530709577874,103.897870151664,542207
442D fajar road,1.38092147169303,103.770840739111,674442
893D woodlands drive 50,1.43631845206637,103.789947950224,733893
208 petir road,1.3739808401432,103.775028040256,670208
178 ang mo kio avenue 4,1.37619319942083,103.837038191014,560178
156 rivervale crescent,1.39110869598936,103.907428124115,540156
545 serangoon north avenue 3,1.37502513517102,103.87107476216,550545
4B boon tiong road,1.28658878251864,103.831950295943,165004
796 yishun ring road,1.41970956748498,103.833448229097,760796
489B choa chu kang avenue 5,1.37573636567496,103.73958458863,682489
505B yishun street 51,1.41924161070524,103.844941652639,762505
568 pasir ris street 51,1.36874938280848,103.948912804889,510568
35 marsiling drive,1.44498346336295,103.771720496252,730035
605 senja road,1.38080486799859,103.761856783214,670605
316 hougang avenue 7,1.36497584742043,103.896809883055,530316
686A choa chu kang crescent,1.40438956727531,103.74785640306,681686
57 teban gardens road,1.32254226544254,103.737560699176,600057
273D compassvale link,1.38414098951186,103.894443272414,544273
999B buangkok crescent,1.38453689339832,103.880588848601,532999
530 serangoon north avenue 4,1.37339499084047,103.872462890152,550530
469 pasir ris drive 6,1.37349977144258,103.957588753401,510469
475A upper serangoon crescent,1.37629840280721,103.900220786851,531475
117 potong pasir avenue 1,1.33600825252357,103.863020849819,350117
14A lorong 7 toa payoh,1.3362682080095,103.858315233952,311014
808 tampines avenue 4,1.34649483830586,103.936047649782,520808
150 yishun street 11,1.43096941749525,103.833648678573,760150
26B jalan membina,1.28309207069724,103.825592376594,165026
545 woodlands drive 16,1.42925949095982,103.793591722892,730545
72 geylang bahru,1.32158321590245,103.871419569078,330072
30 margaret drive,1.29872624365856,103.803961832869,141030
293D bukit batok street 21,1.34502077023724,103.755285866092,654293
156 jalan teck whye,1.37883825439681,103.756635416804,680156
691 jurong west central 1,1.34177067676423,103.706312762997,640691
145 lorong 2 toa payoh,1.33521035428159,103.846162940767,310145
303C punggol central,1.4040520620826,103.905300204384,823303
55 havelock road,1.29006686277944,103.829245853053,161055
588D ang mo kio street 52,1.37175400663025,103.8538833,564588
121 potong pasir avenue 1,1.33576029177039,103.865596996588,350121
366 yishun ring road,1.428839245,103.845809916163,760366
313 ubi avenue 1,1.32906022188765,103.903899355526,400313
262 toa payoh east,1.33320440397645,103.855618262704,310262
161 mei ling street,1.29154391563021,103.803508038366,140161
168C simei lane,1.34247709890668,103.958539053563,523168
847 tampines street 83,1.35251107659385,103.935059005284,520847
977 jurong west street 93,1.33969365989339,103.693915380547,640977
613 jurong west street 62,1.33978250520383,103.700667734162,640613
250 jurong east street 24,1.34265327777661,103.739976995418,600250
416 tampines street 41,1.35915490215513,103.947401738253,520416
308A punggol walk,1.40776143065745,103.900998963843,821308
273B compassvale link,1.3845437429841,103.895001773759,542273
557 ang mo kio avenue 10,1.3716257020332,103.857736107527,560557
232C sumang lane,1.40203576124081,103.890116621791,823232
265D punggol way,1.40482604982361,103.89830171747,824265
430 tampines street 41,1.35955258080538,103.950148194163,520430
301D punggol place,1.4044481482323,103.905429569646,824301
506 jelapang road,1.3870334545891,103.768120654409,670506
103C edgefield plains,1.39726660845387,103.90453836308,823103
82 whampoa drive,1.32387379240679,103.856482753763,320082
545 bedok north street 3,1.3300514240201,103.924118031423,460545
657 woodlands ring road,1.43669060313023,103.798557890119,730657
103 bedok reservoir road,1.32877022232019,103.909381354431,470103
209C punggol place,1.39930949012592,103.900792344556,823209
115 bishan street 12,1.34791838898824,103.84875012549,570115
288C bukit batok street 25,1.34610032788017,103.759754669015,652288
189 bishan street 13,1.35022254582522,103.851833543469,570189
291B compassvale street,1.39582487078481,103.898497580022,542291
184 yung sheng road,1.33332140109047,103.722288614113,610184
85 circuit road,1.32265241052434,103.885755259463,370085
385 bukit batok west avenue 5,1.36348353323119,103.752171420758,650385
87 redhill close,1.28603089023714,103.819023673783,150087
458 yishun avenue 11,1.42066731724757,103.846207771514,760458
452 yishun ring road,1.42208264283536,103.84541571786,760452
171 lorong 1 toa payoh,1.33068534910935,103.842659017362,310171
88 dawson road,1.29579395038247,103.809264765809,142088
185D rivervale crescent,1.39386699836591,103.906351242369,544185
208 boon lay place,1.34700367367083,103.714216413585,640208
93 paya lebar way,1.32273476922747,103.888103196257,370093
531 jelapang road,1.38555067626764,103.764236401698,670531
282A sengkang east avenue,1.38528977819863,103.891907359174,541282
85 whampoa drive,1.32278920327274,103.856444472629,320085
301B punggol central,1.4042654183752,103.905894745009,822301
406 sin ming avenue,1.36294455374689,103.834093500169,570406
70A telok blangah heights,1.27637530976147,103.81137191061,101070
250 kim keat link,1.33199426583747,103.856650727575,310250
224A sumang lane,1.40195144648238,103.892808462281,821224
125 bedok north road,1.32884321524242,103.939123687022,460125
816B keat hong link,1.37604113515339,103.748460043787,682816
342B yishun ring road,1.43024596089696,103.844838329615,762342
454 choa chu kang avenue 4,1.37893713397214,103.73503881658,680454
347 tampines street 33,1.35188042673512,103.96311373702,520347
666B punggol drive,1.40179672508929,103.915278092564,822666
713 clementi west street 2,1.3041278418713,103.762206285308,120713
508C wellington circle,1.45288239563765,103.821431874269,753508
121 pending road,1.37720047788648,103.769852814329,670121
817B keat hong link,1.37708774602652,103.748768050663,682817
430 ang mo kio avenue 3,1.36899287777802,103.85276134968,560430
221 serangoon avenue 4,1.3591460613704,103.871810901097,550221
92B telok blangah street 31,1.27587916988466,103.80732980539,102092
871C tampines street 86,1.35670900289357,103.931385349285,523871
704 woodlands drive 40,1.44058061315975,103.796236000002,730704
602 woodlands drive 42,1.43821741607197,103.796391500509,730602
444 jurong west avenue 1,1.35195380808937,103.719396655601,640444
322C anchorvale drive,1.39189398402945,103.892092264081,543322
430C fernvale link,1.39458976282864,103.878281439779,793430
769 woodlands drive 60,1.44729070675124,103.798950715823,730769
932 tampines street 91,1.3456002103285,103.939441311085,520932
508B yishun avenue 4,1.41429103817707,103.839839936719,762508
529 hougang avenue 6,1.37546896487502,103.890729546346,530529
426 bedok north road,1.32980063275837,103.928985674792,460426
325B sumang walk,1.41312136591979,103.897927310379,822325
346 clementi avenue 5,1.31701655142406,103.770055178868,120346
939 tampines avenue 5,1.34829190196764,103.941192062444,520939
481 jurong west street 41,1.34684614465939,103.725229988301,640481
418C fernvale link,1.39095014768306,103.881014689387,793418
54 geylang bahru,1.32388371941336,103.867864793507,330054
371 jurong east street 32,1.3483083591294,103.731919903016,600371
327C anchorvale road,1.39609319862488,103.888720918656,543327
653C jurong west street 61,1.33542562710519,103.696934679068,643653
418 tampines street 41,1.3582722131871,103.947308949059,520418
87 dawson road,1.2957304268451,103.809759937443,141087
52 strathmore avenue,1.29331314480289,103.808253434532,141052
418 clementi avenue 1,1.31017571904177,103.77000324485,120418
303 jurong east street 32,1.34485611194653,103.735622181477,600303
161 lorong 1 toa payoh,1.33050932305378,103.845003635197,310161
139A lorong 1a toa payoh,1.33627775831234,103.844044881122,311139
260 bukit batok east avenue 4,1.35091259231107,103.759021061327,650260
109 jalan bukit merah,1.27942671435022,103.826086916123,160109
860 jurong west street 81,1.34884898470825,103.696772486889,640860
414B fernvale link,1.39001961783905,103.879574314696,792414
992A buangkok link,1.38345063152545,103.881982721855,531992
506A yishun avenue 4,1.41593131808966,103.840014884657,761506
702 tampines street 71,1.3561725371375,103.937479923002,520702
887B woodlands drive 50,1.43720254481335,103.794350937623,732887
522 bedok north avenue 1,1.33066302927677,103.92698039611,460522
227 simei street 4,1.34202091226152,103.956240053971,520227
122A edgedale plains,1.39350981217359,103.909106562659,821122
407B fernvale road,1.38899739157777,103.875147967354,792407
394 bukit batok west avenue 5,1.36642311199961,103.752688625262,650394
55 geylang bahru,1.32408464111823,103.86859054805,330055
911 jurong west street 91,1.34181837063727,103.686836939175,640911
125 hougang avenue 1,1.35240984227777,103.886491570367,530125
484 jurong west avenue 1,1.34820888556575,103.726357754906,640484
590A ang mo kio street 51,1.37122178516983,103.853853154442,561590
604A punggol road,1.40430971677833,103.907412637205,821604
688D woodlands drive 75,1.44341960518743,103.807696359787,734688
708 clementi west street 2,1.30571872306759,103.762167768843,120708
487B choa chu kang avenue 5,1.37635512444695,103.738360161731,682487
58 dakota crescent,1.30730729862781,103.889390130934,390058
246 bishan street 22,1.36067416170778,103.843353629778,570246
739 yishun avenue 5,1.42974523614957,103.83213983452,760739
197A punggol field,1.39977425428162,103.906849841015,821197
105 bedok reservoir road,1.32914437941094,103.909112780576,470105
511 serangoon north avenue 4,1.3711995231746,103.87563237216,550511
97 whampoa drive,1.32128020862279,103.854938084831,320097
179 ang mo kio avenue 5,1.37690418077298,103.836218103538,560179
725 bedok reservoir road,1.33764586553964,103.928990816937,470725
75B redhill road,1.28848093779845,103.815878776808,152075
165 hougang avenue 1,1.3502542591897,103.887795306397,530165
854 tampines street 82,1.35302683671628,103.936584448142,520854
965 hougang avenue 9,1.37863450467064,103.877615544915,530965
113 bishan street 12,1.34723185095729,103.848808988875,570113
360 bukit batok street 31,1.36106704830424,103.750625432011,650360
308C punggol walk,1.40800694944027,103.899074357998,823308
435 ang mo kio avenue 10,1.36766116325929,103.854307499675,560435
428 hougang avenue 6,1.37499448674029,103.893254845203,530428
367 tampines street 34,1.35861946074158,103.960788620104,520367
119B canberra crescent,1.44637013931729,103.831574876885,752119
8B upper boon keng road,1.31234447247543,103.869898299245,382008
451 yishun ring road,1.42205375166534,103.844675188975,760451
850 woodlands street 82,1.44094981618482,103.792083755214,730850
134 bishan street 12,1.34541104764477,103.852079804354,570134
149 petir road,1.37674574870271,103.766707623856,670149
310 woodlands street 31,1.43010378077548,103.775977116694,730310
77 marine drive,1.3020158078523,103.908586206495,440077
147 bedok reservoir road,1.33488194247883,103.911778859623,470147
780D woodlands crescent,1.44811995933796,103.801945845172,734780
657A jurong west street 65,1.33541318020516,103.700289313311,641657
620 bedok reservoir road,1.33433432226397,103.917712559288,470620
110 tampines street 11,1.34694662248116,103.949306963291,521110
551 ang mo kio avenue 10,1.37392862005901,103.858665713793,560551
346 bukit batok street 34,1.362471404,103.750561080651,650346
492G tampines street 45,1.36424140790743,103.95508531832,527492
762 choa chu kang north 5,1.39239491035955,103.748636494203,680762
863 yishun avenue 4,1.41693951602054,103.838619903084,760863
102 potong pasir avenue 1,1.3336901273759,103.868810587506,350102
118 bedok north street 2,1.33043385999052,103.937481669683,460118
7 upper aljunied lane,1.33471455041652,103.878708329058,360007
63A lengkok bahru,1.28965100014149,103.815399530717,151063
64 teban gardens road,1.32137890995417,103.739779356356,600064
282B sengkang east avenue,1.38475821943149,103.891986745715,542282
63B lengkok bahru,1.28907506834277,103.815318433481,152063
808C chai chee road,1.32789302968468,103.923874941007,463808
35 marine crescent,1.30337040429401,103.912521922537,440035
181A boon lay drive,1.34849083792572,103.708097262621,641181
73 marine drive,1.30380541604563,103.908362369014,440073
290B bukit batok street 24,1.34355360034935,103.75662883009,653290
278A compassvale bow,1.38188082172346,103.890295472102,541278
437 tampines street 43,1.35996624539325,103.951587758584,520437
201 serangoon central,1.35097779933054,103.873595480638,550201
268 tampines street 21,1.35139028806382,103.947897535222,520268
459 yishun avenue 11,1.42103574926841,103.846333547036,760459
662A edgedale plains,1.4020044862654,103.918326393281,821662
104A depot road,1.28045561330579,103.812317740785,101104
672A yishun avenue 4,1.41875267193096,103.84138862703,761672
706 tampines street 71,1.35750385698395,103.937559746526,520706
410 pandan gardens,1.31900921124333,103.747433142313,600410
449 sin ming avenue,1.35808106284654,103.83079059602,570449
131 bedok north avenue 3,1.3269699402053,103.93585007622,460131
195A punggol road,1.40138691564121,103.90608123416,821195
419 woodlands street 41,1.42851420473475,103.774572425077,730419
138D yuan ching road,1.32846031138004,103.723287795397,614138
404A fernvale lane,1.38834821726981,103.873814853605,791404
342A yishun ring road,1.43059711114855,103.84446482342,761342
930 hougang street 91,1.37548347566834,103.881278238761,530930
331 bukit batok street 33,1.36361186600798,103.747645306633,650331
450 ang mo kio avenue 10,1.36848406233048,103.855468149019,560450
311D anchorvale lane,1.39185683967752,103.884702425227,544311
271B sengkang central,1.38545544642334,103.894490395737,542271
410 bukit batok west avenue 4,1.36445863795592,103.744991611928,650410
988B jurong west street 93,1.33619079679783,103.695792447165,642988
612 clementi west street 1,1.303442199,103.768633365525,120612
535 bukit batok street 52,1.35497075658138,103.750399544877,650535
424 serangoon central,1.34814738936672,103.875590835007,550424
52 new upper changi road,1.32390387200176,103.942511366491,461052
417 jurong west street 42,1.35130933561361,103.727345002671,640417
565 choa chu kang street 52,1.39490602898208,103.745309711791,680565
487C tampines street 45,1.36075820406707,103.957884242384,522487
853 yishun ring road,1.41645129453248,103.836741138472,760853
659D jurong west street 65,1.33640971323273,103.70247892707,644659
660D jurong west street 64,1.33638400961294,103.703382722652,644660
353 yishun ring road,1.4261372783241,103.84521649048,760353
365B sembawang crescent,1.44396286350094,103.817361902182,752365
30 new upper changi road,1.32352678248226,103.936423896498,461030
574B woodlands drive 16,1.42968120982977,103.79721983981,732574
266 yishun street 22,1.43700349013967,103.838824725916,760266
642 yishun street 61,1.42097005451488,103.837446801202,760642
820 jurong west street 81,1.34633229610859,103.695188410921,640820
427 serangoon central,1.34778813419006,103.875198480006,550427
674A choa chu kang crescent,1.40163882695973,103.746535330738,681674
296B bukit batok street 22,1.34369381417078,103.747356802144,652296
130 bedok reservoir road,1.33343622625478,103.912338037315,470130
713 tampines street 71,1.35924098095519,103.937646641338,520713
238 bukit batok east avenue 5,1.34983226535734,103.7547382,650238
418B fernvale link,1.39101485658152,103.880193298835,792418
980B buangkok crescent,1.37972529696275,103.881133269191,532980
80A telok blangah street 31,1.27368173970143,103.806579408022,101080
259C punggol field,1.40453408581455,103.895665532043,823259
90 tanglin halt road,1.30051700920519,103.79897627676,141090
250D compassvale street,1.39325011290637,103.899822683868,544250
438A bukit batok west avenue 8,1.3574856237206,103.740845096872,651438
546 bedok north street 3,1.33082005919243,103.925595840288,460546
153A lorong 1 toa payoh,1.3337138280505,103.845233136341,311153
641 jurong west street 61,1.34066811398303,103.696356784294,640641
102A canberra street,1.45119390519494,103.832227554636,751102
82B lorong 4 toa payoh,1.33562239265484,103.848851474907,312082
55 marine terrace,1.30542368483748,103.914004754803,440055
234 bukit panjang ring road,1.37853337682238,103.771789071508,670234
694D woodlands drive 62,1.43860258381124,103.805091219141,734694
170 yishun avenue 7,1.43709558093348,103.832777533108,760170
182 jelebu road,1.37984403992366,103.763409218035,670182
724 bedok reservoir road,1.33714403979137,103.928433830286,470724
409 hougang avenue 10,1.37369229134185,103.895116210204,530409
264 toa payoh east,1.332464536,103.855237512058,310264
815B choa chu kang avenue 7,1.37684626113984,103.747376759116,682815
470A upper serangoon crescent,1.37905480016802,103.901927831856,531470
423 bedok north avenue 1,1.32797614118511,103.927565110763,460423
370 woodlands avenue 1,1.43254270511027,103.787387733968,730370
610C tampines north drive 1,1.36441776002022,103.935558340158,523610
520 bedok north avenue 1,1.33046461779259,103.92813426172,460520
835 yishun street 81,1.41511032968933,103.83341538078,760835
162A punggol central,1.39636616023321,103.914250161058,821162
614 senja road,1.38454850292013,103.760865902822,670614
305 jurong east street 32,1.34543656763546,103.735240571701,600305
275 tampines street 22,1.34781303677538,103.950409276356,520275
208A punggol place,1.40146324574732,103.900761051711,821208
451B sengkang west way,1.39429893366267,103.874547411666,792451
335C yishun street 31,1.43248777014111,103.844367368405,763335
522 hougang avenue 6,1.37342466470781,103.891856909799,530522
787C woodlands crescent,1.4448677578465,103.801173705124,733787
290C compassvale crescent,1.39701802009921,103.897534779007,543290
347A yishun avenue 11,1.42793924371366,103.842676976311,761347
518 jurong west street 52,1.34508681384068,103.717978485296,640518
602 bedok reservoir road,1.32934898685946,103.911583237057,470602
961 hougang avenue 9,1.37775216619067,103.87866526567,530961
438B bukit batok west avenue 8,1.35788978585234,103.740481164284,652438
709 tampines street 71,1.35798965118265,103.937435186474,520709
255 ang mo kio avenue 4,1.37065487078854,103.834630215787,560255
441B bukit batok west avenue 8,1.35600327228239,103.738549101393,652441
27 ghim moh link,1.30837126346035,103.785133508433,270027
65 circuit road,1.32740031002016,103.887203611284,370065
152 ang mo kio avenue 5,1.3766876256746,103.840159506601,560152
687 hougang street 61,1.3762254502561,103.885072860925,530687
23 telok blangah crescent,1.27608072351135,103.820839521286,090023
700B ang mo kio avenue 6,1.36941049804616,103.846059822142,562700
802 yishun ring road,1.41853885481022,103.831763323404,760802
517C jurong west street 52,1.34493630769122,103.720024635155,643517
301B anchorvale drive,1.38930683858364,103.891098273363,542301
334C yishun street 31,1.43266234024076,103.846321811361,763334
218 pasir ris street 21,1.36942598554209,103.961388925543,510218
296 punggol central,1.40158819081014,103.905265199203,820296
816A keat hong link,1.37603151881569,103.748824632963,681816
663D jurong west street 65,1.33884440739716,103.702339448465,644663
157 woodlands street 13,1.43437664621496,103.774783081105,730157
449 yishun ring road,1.42260229629233,103.844247701105,760449
14 saint george's road,1.32372959519736,103.862088437214,320014
13 upper boon keng road,1.3144810967637,103.87045800931,380013
233 jurong east street 21,1.34037462134713,103.740936554727,600233
258 bukit batok east avenue 4,1.35127411954665,103.758871467713,650258
145 tampines street 12,1.34880182138885,103.943691020379,521145
201B compassvale drive,1.38831311571148,103.893923639861,542201
838 jurong west street 81,1.34384901486992,103.693508093563,640838
113 jurong east street 13,1.33879791361243,103.734807724832,600113
125 lorong 1 toa payoh,1.33833133395207,103.845737117132,310125
446 choa chu kang avenue 4,1.3807129959352,103.73689142472,680446
786D woodlands drive 60,1.44641912494034,103.801027490309,734786
209 boon lay place,1.34625797211644,103.715154716629,640209
40 circuit road,1.32767695905654,103.886264654446,370040
24 sin ming road,1.35518696986305,103.836337992513,570024
505 west coast drive,1.31228054125456,103.759981529056,120505
527D pasir ris street 51,1.36968625501963,103.947922425135,514527
322D sumang walk,1.41003628713147,103.896380211581,824322
485A choa chu kang avenue 5,1.37461810751349,103.738364995209,681485
151 bishan street 11,1.34507321944682,103.855542321231,570151
331 tampines street 32,1.35335621064813,103.959788744545,520331
3 toh yi drive,1.33877430429858,103.775254200454,590003
155 simei road,1.34469945127151,103.958210105786,520155
683C jurong west street 64,1.34333442575136,103.704701215266,643683
128 geylang east avenue 1,1.31830919498771,103.887754005604,380128
645 jurong west street 61,1.33903532010243,103.696461338372,640645
4 marine terrace,1.30509642100259,103.917733747552,440004
178 bishan street 13,1.34812743111822,103.852330274842,570178
102 bukit purmei road,1.27190842334423,103.826671653892,090102
203 choa chu kang avenue 1,1.38133728174881,103.749449671373,680203
57 telok blangah heights,1.27463331496043,103.812586604999,100057
517 jelapang road,1.38803622153251,103.766707751932,670517
327 tampines street 32,1.35244718454516,103.958287602194,520327
103B edgefield plains,1.39773127538403,103.90468537415,822103
265E compassvale bow,1.381909152,103.896656322872,548265
2 teck whye avenue,1.38194642527068,103.751888178683,680002
608 choa chu kang street 62,1.39846759912749,103.744645761889,680608
484 tampines street 43,1.36189785863171,103.952639447182,520484
275 toh guan road,1.34106185650379,103.747964433747,600275
585 ang mo kio avenue 3,1.37059756050933,103.852367040901,560585
61 circuit road,1.32573742833728,103.887054329523,370061
443B bukit batok west avenue 8,1.35612327530865,103.737831166898,652443
113 pending road,1.37838181779224,103.769359493878,670113
154 rivervale crescent,1.3910358918062,103.906909105887,540154
443C fernvale road,1.39121766005235,103.873553181742,793443
636A punggol drive,1.40025421293811,103.91395378831,821636
409 pasir ris drive 6,1.37291719840656,103.954225824192,510409
23 teban gardens road,1.32285773181424,103.73923873397,600023
100 bedok north avenue 4,1.33413899974038,103.938389713003,460100
747B bedok reservoir crescent,1.33666009454076,103.921624733709,472747
365C sembawang crescent,1.44339578695379,103.816986885504,753365
535 jurong west street 52,1.34942131073209,103.71701184524,640535
303B anchorvale link,1.38742376759553,103.889848758135,542303
111 serangoon north avenue 1,1.36904731272801,103.870584006425,550111
356A anchorvale lane,1.39343577522561,103.884811967949,541356
264 jurong east street 24,1.34382869717494,103.741654163177,600264
121 ang mo kio avenue 3,1.36970563478325,103.843515981311,560121
203A compassvale road,1.3864692312008,103.895407767764,541203
504 bedok north street 3,1.33188000305479,103.932389359044,460504
258 jurong east street 24,1.34378634902456,103.738635757888,600258
434A fernvale road,1.39437366578651,103.876322418463,791434
445 yishun avenue 11,1.42319178686724,103.844627724673,760445
871 tampines street 84,1.35440347555796,103.932702293995,520871
475 ang mo kio avenue 10,1.36266297827625,103.85651592319,560475
740 pasir ris street 71,1.37790740617351,103.935984430467,510740
464 pasir ris street 41,1.37267707714054,103.958359235852,510464
107C canberra street,1.44855782306648,103.8338648,753107
28C dover crescent,1.30568925796414,103.782345952713,133028
147 rivervale crescent,1.39052899073612,103.905609227011,540147
55 strathmore avenue,1.29338294925716,103.809330719416,140055
806 tampines avenue 4,1.34554033527408,103.936875522387,520806
612D punggol drive,1.40472652611435,103.907623552659,824612
710 pasir ris street 72,1.3819775730856,103.937637737839,510710
631 woodlands ring road,1.4353213863108,103.80139895983,730631
229 simei street 4,1.34315531075237,103.956105132704,520229
131 simei street 1,1.34549483450733,103.953960305385,520131
109 aljunied crescent,1.31939291785822,103.884439876207,380109
391 bukit batok west avenue 5,1.36585374932576,103.752728543207,650391
231 hougang street 21,1.35813059742215,103.887899973852,530231
247 jurong east street 24,1.34202424550408,103.739009746539,600247
292B compassvale street,1.39539858831188,103.898745037243,542292
151 rivervale crescent,1.39202334402453,103.905897483327,540151
738 pasir ris drive 10,1.37918074333783,103.936553749218,510738
224 pasir ris street 21,1.37062192913962,103.961110522182,510224
244 bukit batok east avenue 5,1.34918269764742,103.757239164878,650244
38 beo crescent,1.28855393184563,103.827290023383,160038
137 rivervale street,1.3891027253423,103.904819113359,540137
412B fernvale link,1.38972509794045,103.877958882809,792412
686D choa chu kang crescent,1.40411744569373,103.748355036188,684686
237 lorong 1 toa payoh,1.33977315087539,103.852242265569,310237
525 bedok north street 3,1.33460113941761,103.929445271638,460525
638 woodlands ring road,1.43671737829561,103.803192512642,730638
270 bishan street 24,1.35696105024892,103.842165426934,570270
267A punggol field,1.4045590871809,103.897504894239,821267
631 jurong west street 65,1.34329710152481,103.700240981582,640631
912 hougang street 91,1.37849281015329,103.884016382567,530912
732 woodlands circle,1.44334742731535,103.798291752455,730732
116 pasir ris street 11,1.36840453035745,103.954483834817,510116
627 yishun street 61,1.41770409927839,103.837005089412,760627
716 clementi west street 2,1.30240953060904,103.762804760851,120716
501B yishun street 51,1.41704065966643,103.840552464198,762501
668C jurong west street 64,1.34133284361425,103.703403993812,643668
264A compassvale bow,1.38113503189067,103.896831355117,541264
987C jurong west street 93,1.33661986539386,103.695091222904,643987
536 jurong west street 52,1.34992094562962,103.716717859141,640536
8 tanjong pagar plaza,1.27727257328258,103.842917174799,080008
203 marsiling drive,1.44378245782924,103.774416596146,730203
603 jurong west street 62,1.33885099563978,103.700454992416,640603
175 boon lay drive,1.34668916681369,103.709485323529,640175
769 bedok reservoir view,1.33577919034865,103.937911555857,470769
503 ang mo kio avenue 5,1.37546163119278,103.848942047568,560503
710 yishun avenue 5,1.42821779793313,103.827761264778,760710
676B jurong west street 64,1.34600218842428,103.70418922292,642676
684B jurong west street 64,1.34383999434612,103.704216582811,642684
491 admiralty link,1.45611278902566,103.817716592062,750491
311C anchorvale lane,1.39157127388497,103.884436159774,543311
987B jurong west street 93,1.33659334547656,103.694773888467,642987
670C edgefield plains,1.40534285786675,103.913933278721,823670
406B fernvale road,1.38842869026139,103.87432292478,792406
892 tampines avenue 8,1.34901282859006,103.929242816227,520892
116 bedok north road,1.33100823526591,103.938066838998,460116
315C anchorvale road,1.39234414519167,103.888049808731,543315
608A tampines north drive 1,1.36314791550448,103.93511840985,521608
420 bedok north street 1,1.32774467875638,103.928874390405,460420
305 clementi avenue 4,1.32206108860648,103.76601401343,120305
637B punggol drive,1.3994959700372,103.914954508817,822637
465 choa chu kang avenue 4,1.37729601829662,103.736538815878,680465
780B woodlands crescent,1.44894246,103.801016266355,732780
216 ang mo kio avenue 1,1.36619678831054,103.841505011903,560216
156 lorong 1 toa payoh,1.33256473217629,103.845206893398,310156
141 bedok reservoir road,1.33530647237824,103.913462151262,470141
658 hougang avenue 8,1.3733793738112,103.882388337974,530658
326 serangoon avenue 3,1.35035198508251,103.868996990604,550326
115 bukit purmei road,1.27535201369639,103.826950180582,090115
670A jurong west street 65,1.34409724788485,103.702860640067,641670
490A tampines street 45,1.36202172926791,103.956772635992,520490
419 ang mo kio avenue 10,1.36534669720177,103.85415182597,560419
698A hougang street 61,1.37501378353128,103.887337730531,531698
1G cantonment road,1.27553229128302,103.841274606704,085701
618B punggol drive,1.40146581977448,103.912122,822618
296C choa chu kang avenue 2,1.37658460954055,103.742297171999,683296
146 pasir ris street 11,1.36303591789608,103.960157915898,510146
121 lorong 2 toa payoh,1.3391626233715,103.846243540344,310121
480 segar road,1.38969248582467,103.772378752183,670480
476 ang mo kio avenue 10,1.36238829184688,103.857880564737,560476
261A sengkang east way,1.3940974696348,103.894421846636,541261
171 hougang avenue 1,1.35113637322024,103.889168968814,530171
436 tampines street 43,1.3595896657359,103.95159077743,520436
432 jurong west street 42,1.35256372860883,103.723569457588,640432
510 jelapang road,1.38758897243469,103.768982944262,670510
624 hougang avenue 8,1.37017547068583,103.882230180268,530624
507B wellington circle,1.45288094461879,103.823411094973,752507
288F bukit batok street 25,1.34525092996959,103.758361154197,655288
544 jelapang road,1.38205844946254,103.764015424369,670544
315C yishun avenue 9,1.43236735703997,103.843300870773,763315
336 sembawang crescent,1.44695013719977,103.815574238972,750336
526D pasir ris street 51,1.36866830502329,103.947274003279,514526
276 bangkit road,1.37622287943252,103.775700265583,670276
987D jurong west street 93,1.33659660947488,103.69537817893,644987
662B edgedale plains,1.40172153675655,103.918690999509,822662
676A jurong west street 64,1.3459571863087,103.704539086759,641676
283 bukit batok east avenue 3,1.34694365753899,103.757539380939,650283
122D rivervale drive,1.38709611224694,103.905723021788,544122
525 woodlands drive 14,1.43232278107759,103.793250049436,730525
807 king george's avenue,1.30928836905115,103.861442474883,200807
16 teck whye lane,1.37837787722959,103.754764782165,680016
307 serangoon avenue 2,1.35462817749301,103.867068733428,550307
21 queen's close,1.2932777500051,103.799918049241,140021
338D anchorvale crescent,1.39970005035247,103.888714059734,544338
220B bedok central,1.32547710525716,103.934348226987,462220
163 lorong 1 toa payoh,1.33206060664774,103.84410502428,310163
420 jurong west street 42,1.35057175087713,103.72717276553,640420
721 woodlands circle,1.44409699510211,103.80040459108,730721
157B rivervale crescent,1.38763106364664,103.908232918823,542157
351 tampines street 33,1.35281545076783,103.96291319475,520351
153 yishun street 11,1.43116848559462,103.834264424083,760153
57 havelock road,1.29013858517146,103.828453293371,161057
105 teck whye lane,1.37765001961331,103.7529943,680105
222 serangoon avenue 4,1.35842952473611,103.871224,550222
91 lorong 3 toa payoh,1.33822603074183,103.848596916655,310091
34 jalan bahagia,1.32698180867095,103.857761761594,320034
19 teck whye lane,1.37939429441995,103.752949446949,680019
709 yishun avenue 5,1.4285690021208,103.827735428264,760709
102 tampines street 11,1.34671616267656,103.945521388285,521102
188A rivervale drive,1.39428260901923,103.905324978488,541188
780C woodlands crescent,1.44911111477951,103.801346682135,733780
197 pasir ris street 12,1.36640299690077,103.960738659652,510197
425 choa chu kang avenue 4,1.38121893045435,103.739482403988,680425
159 hougang street 11,1.35144832512017,103.879517231789,530159
168A simei lane,1.34273869646672,103.958976326972,521168
529 jurong west street 52,1.34841672939573,103.716191585352,640529
588A ang mo kio street 52,1.37207688864036,103.852786139342,561588
17A circuit road,1.32989202076676,103.888112904804,371017
182B woodlands street 13,1.43540518046772,103.776360045557,732182
143 petir road,1.37637448213033,103.76732428038,670143
334D yishun street 31,1.43243953154701,103.84649027056,764334
476C upper serangoon view,1.37794957092138,103.904346035596,533476
496B tampines street 43,1.36123685622591,103.950996094324,525496
611 bukit panjang ring road,1.38387209680691,103.761859831513,670611
279 toh guan road,1.34072885868923,103.746781223695,600279
612 ang mo kio avenue 4,1.37890791374409,103.838602654716,560612
624 senja road,1.38624340292657,103.76183758098,670624
609 jurong west street 65,1.33793586799435,103.700586485479,640609
507 bukit batok street 52,1.3522210432368,103.753979892768,650507
299A compassvale street,1.39624131422154,103.902632812388,541299
611 ang mo kio avenue 5,1.37829205175133,103.83725190016,560611
105 henderson crescent,1.29021420176947,103.822356844711,150105
134 yishun street 11,1.43237650538302,103.831410877391,760134
418 canberra road,1.45235459621765,103.819266367388,750418
127C kim tian road,1.28152280420004,103.830035757166,163127
691A woodlands drive 73,1.44030360618925,103.806660428381,731691
468C admiralty drive,1.45030915760096,103.814877754821,753468
372 clementi avenue 4,1.31978885138438,103.767787535116,120372
307C ang mo kio avenue 1,1.36556100435161,103.845169497182,563307
719 pasir ris street 72,1.38224267910055,103.936646781251,510719
455A sengkang west avenue,1.39157665293201,103.870444622949,791455
672D edgefield plains,1.40759031189113,103.910923572748,824672
266D punggol way,1.40493960067331,103.89803677792,824266
7 boon keng road,1.31678922529744,103.861781918434,330007
612B punggol drive,1.40493858379942,103.908157161266,822612
530 choa chu kang street 51,1.39268007502711,103.741839276777,680530
603 woodlands drive 42,1.43757277585058,103.796414103464,730603
662 hougang avenue 4,1.37437689393173,103.882874917484,530662
267 boon lay drive,1.34644748042226,103.706946815266,640267
199C punggol field,1.40064708187083,103.906006617712,823199
23 jalan membina,1.28474832742359,103.82687567732,163023
491G tampines street 45,1.3636112252445,103.954333196181,526491
628 bukit batok central,1.35146739480931,103.749837547956,650628
854 woodlands street 83,1.43979292303567,103.793067357987,730854
421 tampines street 41,1.35751860691899,103.947536321519,520421
816 tampines avenue 4,1.3477050498226,103.937555571928,520816
723 jurong west avenue 5,1.34442696756266,103.698193963126,640723
158C rivervale crescent,1.38818825958938,103.907145829717,543158
130 bukit batok west avenue 6,1.35106126001126,103.745857351625,650130
329A anchorvale street,1.39619302195076,103.88972181068,541329
125 pending road,1.37720623303834,103.770506986516,670125
587 woodlands drive 16,1.42844657911529,103.795288852487,730587
22 marsiling drive,1.44189730082889,103.774373791954,730022
624A punggol central,1.40086241223827,103.911368717759,821624
878A tampines avenue 8,1.35166373353574,103.929646035306,521878
113A mcnair road,1.32142575611025,103.860194689384,322113
748B bedok reservoir crescent,1.33629391354583,103.921242294579,472748
288 tampines street 22,1.34885277403052,103.954704571774,520288
13 marsiling lane,1.44109627463339,103.779276133737,730013
132A canberra crescent,1.44345437411826,103.831294578169,751132
411 choa chu kang avenue 3,1.38105980228791,103.741260166437,680411
636 jurong west street 65,1.34225166848347,103.69787057646,640636
122 bedok north street 2,1.32861719819893,103.937787149387,460122
296B compassvale crescent,1.3976389016057,103.899287408404,542296
54 havelock road,1.28930893190551,103.829233342268,161054
588B ang mo kio street 52,1.37197571261128,103.853150894936,562588
678C jurong west street 64,1.34480618588213,103.703838568056,643678
627 bukit batok central,1.35184612661323,103.749350048656,650627
588 woodlands drive 16,1.42766679871283,103.794643990954,730588
305 tampines street 32,1.35241346727103,103.955871285534,520305
812B choa chu kang avenue 7,1.37298072773967,103.746249268178,682812
981B buangkok crescent,1.3804698748621,103.880038005477,532981
409 sembawang drive,1.45303321140803,103.817650679888,750409
431 choa chu kang avenue 4,1.38403775540864,103.741773099201,680431
259C compassvale road,1.3933884601797,103.898081358537,543259
205 ang mo kio avenue 1,1.36694084363535,103.843582435016,560205
882 woodlands street 82,1.4442579867912,103.790930441498,730882
279 tampines street 22,1.34629229402625,103.951686109789,520279
701 tampines street 71,1.35617182936882,103.936798850032,520701
2 delta avenue,1.29173412228908,103.82802613443,161002
604B punggol road,1.40388929562539,103.907206921482,822604
32 balam road,1.3293933046895,103.886977511986,370032
202 marsiling drive,1.44315121142693,103.775164777049,730202
490D choa chu kang avenue 5,1.37602869228672,103.741368197927,684490
728 woodlands circle,1.44288020200672,103.798887777863,730728
639 woodlands ring road,1.43763312098352,103.803232348897,730639
226 lorong 8 toa payoh,1.33951566601807,103.857051021906,310226
308 yishun ring road,1.43122983753347,103.840559963761,760308
450A bukit batok west avenue 6,1.35279091158198,103.744536033565,651450
316B anchorvale link,1.39284937868558,103.888820766704,542316
235 tampines street 21,1.35549080919861,103.948259265817,521235
69 redhill close,1.2870165287153,103.816374778847,150069
307D anchorvale road,1.39029890072186,103.886489261901,544307
453A fernvale road,1.39447883247668,103.875558391505,791453
306C punggol place,1.40640385188347,103.905958190135,823306
177 bukit batok west avenue 8,1.3463440745148,103.741742087315,650177
633B senja road,1.38516970673292,103.758529145929,672633
441 sin ming avenue,1.35908431540971,103.831751028982,570441
815A choa chu kang avenue 7,1.37607846692948,103.74690311631,681815
208 choa chu kang central,1.38146075573503,103.748182713332,680208
57 lorong 5 toa payoh,1.33705392055699,103.851495573635,310057
18B circuit road,1.32918105126141,103.888248441219,372018
36 eunos crescent,1.32117164370394,103.901772831996,400036
715 clementi west street 2,1.30315360303876,103.761943675943,120715
619C punggol drive,1.40239328837618,103.910696806603,823619
899A tampines street 81,1.34632473579465,103.935008515937,521899
320 jurong east street 31,1.34875786021291,103.730708675043,600320
308 tampines street 32,1.35286747357104,103.95673502603,520308
91A telok blangah street 31,1.27666192078908,103.807127959576,101091
272 bishan street 24,1.35629489446383,103.842822596127,570272
303C anchorvale link,1.38759793773653,103.890220332665,543303
418 bedok north avenue 2,1.32856421177174,103.930036524233,460418
25B jalan membina,1.28362146974577,103.825391035279,164025
476A choa chu kang avenue 5,1.37652018482202,103.738025725932,681476
33 marsiling drive,1.44355825410306,103.772015392214,730033
471A upper serangoon crescent,1.37814544014756,103.901767342056,531471
114 ang mo kio avenue 4,1.37257962452704,103.836220813247,560114
110A depot road,1.28142824815036,103.809242812919,101110
286B compassvale crescent,1.39755063670988,103.895593236308,542286
445B bukit batok west avenue 8,1.35107437750712,103.738755449982,652445
3 ghim moh road,1.31199891286265,103.787189701148,270003
37 bedok south avenue 2,1.32190663617287,103.939847213862,460037
997C buangkok crescent,1.38553018206225,103.881587879925,534997
221 bishan street 23,1.35784120462222,103.848940368039,570221
295C compassvale crescent,1.39730007931625,103.899988294316,543295
375 clementi avenue 4,1.31849298732441,103.766701647482,120375
114 rivervale walk,1.38409456683002,103.901075631499,540114
411 sembawang drive,1.45219746411589,103.817932344079,750411
289B compassvale crescent,1.39767657110085,103.897388441126,542289
165 stirling road,1.29076405683553,103.801916448458,140165
128 yishun street 11,1.43387793728634,103.831302218611,760128
260C punggol way,1.40524575016039,103.896410927147,823260
439 hougang avenue 8,1.37859799173852,103.893427304657,530439
478 jurong west street 41,1.34735317434247,103.723952185676,640478
507A wellington circle,1.4527308013707,103.823966895951,751507
465 jurong west street 41,1.35012595902893,103.723209572771,640465
890B tampines avenue 1,1.34690555756363,103.933409216927,522890
567 choa chu kang street 52,1.39513213569157,103.745875286592,680567
117 edgefield plains,1.3957873517208,103.9066178,820117
412 sembawang drive,1.45189061357974,103.818160670565,750412
321 tah ching road,1.33727166109701,103.724355525718,610321
20 marine terrace,1.30371588728852,103.915067020322,440020
644 ang mo kio avenue 4,1.37914986228487,103.84093819913,560644
124 tampines street 11,1.34518428911075,103.949793325094,521124
113B mcnair road,1.32118140104797,103.860568176564,323113
212 ang mo kio avenue 3,1.36880359418469,103.841618072603,560212
21 jalan membina,1.28508656289053,103.825782815048,163021
677D punggol drive,1.40588044840999,103.910158734881,824677
751 yishun street 72,1.42761188817552,103.834268383036,760751
138 lorong ah soo,1.35162442643015,103.884447871485,530138
150 rivervale crescent,1.392354298,103.906260569671,540150
526 bukit batok street 51,1.3571882058688,103.751123943023,650526
612A punggol drive,1.40416431610712,103.909117742952,821612
842E tampines street 82,1.35157120885478,103.938444966547,525842
524C pasir ris street 51,1.37054529360258,103.947594575271,513524
3A upper boon keng road,1.31382812861788,103.872380770457,381003
697 hougang street 61,1.37554033809538,103.887475138873,530697
210B punggol place,1.40018624466167,103.900097012053,822210
128 bukit merah view,1.28264675199072,103.823327111496,150128
667D jurong west street 65,1.341877297,103.702203679337,644667
432 clementi avenue 3,1.31402057628905,103.762740587497,120432
463 choa chu kang avenue 4,1.37717864078464,103.735454175075,680463
23 toa payoh east,1.33455570085904,103.857191175608,310023
614 elias road,1.37569025647343,103.941594146207,510614
422 bukit batok west avenue 2,1.36218905539241,103.745774940015,650422
441B clementi avenue 3,1.31457621542954,103.764158883788,122441
135 rivervale street,1.38814105144964,103.905022041583,540135
662D jurong west street 64,1.33697838675185,103.704279354428,644662
658B punggol east,1.40021371053357,103.919048765929,822658
334 jurong east avenue 1,1.35078279521922,103.731532573887,600334
28 jalan klinik,1.28789877031281,103.828203629292,160028
931 jurong west street 92,1.34162140661587,103.689734175235,640931
824 woodlands street 81,1.43923268770834,103.788699943987,730824
619B punggol drive,1.4028812272329,103.911042035521,822619
4 jalan batu,1.30186342536084,103.884045467548,431004
22 sin ming road,1.3572844410824,103.839396679952,570022
920 hougang street 91,1.37682252239848,103.884082693756,530920
312 shunfu road,1.35120461586182,103.838716846527,570312
782D woodlands crescent,1.44817394200904,103.803035445933,734782
401 bedok north avenue 3,1.33098173461878,103.933604621756,460401
663C jurong west street 65,1.33804531682119,103.702429703843,643663
417A fernvale link,1.39157654101303,103.880697269897,791417
90 dawson road,1.29540163896319,103.812185563953,142090
172 bedok south road,1.32066917100909,103.94468952936,460172
147 tampines avenue 5,1.34923238819558,103.942181032929,521147
196B boon lay drive,1.34278860969526,103.714301445473,642196
514 woodlands drive 14,1.43459781347729,103.789672557945,730514
926 tampines street 91,1.34601425203044,103.940985246396,520926
415 ang mo kio avenue 10,1.36445335577543,103.853655233672,560415
871B tampines street 86,1.35651147306916,103.931956767677,522871
712 yishun avenue 5,1.42785215049801,103.827781339299,760712
91 tanglin halt road,1.30072792288033,103.799417284922,142091
873 woodlands street 81,1.44329522897943,103.789746799666,730873
532 bedok north street 3,1.33419173917878,103.925386600613,460532
690D choa chu kang crescent,1.40214978725236,103.752101604265,684690
293D compassvale crescent,1.39674216564884,103.895331584899,544293
414 eunos road 5,1.31811559287301,103.898220673165,400414
686C jurong west central 1,1.34226609525472,103.704309342374,643686
126D edgedale plains,1.39378388948021,103.910981491609,824126
958 hougang street 91,1.37663567897449,103.879787450961,530958
590C montreal link,1.44994314368403,103.82672063438,753590
750 jurong west street 73,1.34793711637819,103.699191887798,640750
797 woodlands drive 72,1.44365656317263,103.803047711815,730797
476B upper serangoon view,1.37732845210704,103.904212191193,532476
186 bishan street 13,1.34934558612857,103.852578831668,570186
936 jurong west street 91,1.34256782159011,103.689149776097,640936
524B tampines central 7,1.35895813519086,103.938911100785,522524
187B bedok north street 4,1.33038146607469,103.940088401203,462187
455 yishun street 41,1.41998045171784,103.844383980966,760455
132 simei street 1,1.34673898258804,103.955937163216,520132
276D jurong west street 25,1.35344766528144,103.704411153076,644276
37 circuit road,1.32817733374331,103.886486362837,370037
149 simei street 1,1.34588876242278,103.956025808254,520149
437 yishun avenue 6,1.42168752611672,103.84756072452,760437
707 woodlands drive 40,1.44061701971721,103.79664662375,730707
980A buangkok crescent,1.37956353427971,103.880454374163,531980
1 hougang avenue 3,1.36413097349222,103.89300132385,530001
23 lim liak street,1.28546534866696,103.83171937723,161023
708 tampines street 71,1.35799200738946,103.936892456311,520708
103 bukit batok central,1.34822368204242,103.748034526478,650103
203E compassvale road,1.38795018771966,103.895779285387,545203
107 jalan bukit merah,1.27983690191197,103.824757769108,160107
160 jalan teck whye,1.38079449708347,103.756442998925,680160
574 hougang street 51,1.37746990324755,103.886929044359,530574
93 whampoa drive,1.32227606663002,103.854799917943,320093
808B choa chu kang avenue 1,1.37559249810909,103.7460213,682808
326 clementi avenue 5,1.31443081636431,103.766358328432,120326
18C circuit road,1.3292969092972,103.888792588332,373018
512 west coast drive,1.30995900089387,103.760210268491,120512
312 jurong east street 32,1.34691464537256,103.732174273854,600312
313 sembawang drive,1.44447224601627,103.821707282924,750313
2 jalan bukit ho swee,1.28728822015938,103.831873006286,162002
103B canberra street,1.45056599465441,103.831238741555,752103
439B sengkang west avenue,1.39197653860922,103.878309805797,792439
212 choa chu kang central,1.3824698614123,103.747347893013,680212
224 yishun street 21,1.43463286013578,103.835208223916,760224
32 marine crescent,1.303178277,103.911806642809,440032
620 jurong west street 65,1.34145472885006,103.699481732903,640620
233A sumang lane,1.40158066096097,103.890310335343,821233
524 jelapang road,1.3861354959637,103.765863505451,670524
229 tampines street 23,1.35593143453856,103.953944534569,521229
118 yishun ring road,1.43598707842969,103.828641482509,760118
1 jalan bukit merah,1.28645354030174,103.808242400418,150001
484C choa chu kang avenue 5,1.37549260049004,103.73687123842,683484
686B choa chu kang crescent,1.40466479917824,103.748504488379,682686
11 teck whye lane,1.37976221059279,103.754969354123,680011
507C wellington circle,1.4517313216515,103.823451879244,753507
141 jalan bukit merah,1.27714559744846,103.828738908605,160141
283 tampines street 22,1.34862955734174,103.952853471968,520283
936 hougang street 92,1.37457017021599,103.879877813491,530936
265 toh guan road,1.34070811731138,103.744702329438,600265
741 woodlands circle,1.44441190731037,103.795827945234,730741
517 bedok north avenue 2,1.33108906602956,103.929204536012,460517
470A fernvale link,1.39647838386976,103.879494944074,791470
506 serangoon north avenue 4,1.37281631901907,103.876339684598,550506
547C segar road,1.38853827277489,103.768773256544,673547
566 choa chu kang street 52,1.39461688537766,103.745768782105,680566
31 marine crescent,1.30370556638513,103.911444787591,440031
20 holland drive,1.31049160423204,103.79225696682,271020
276B jurong west avenue 3,1.35266387212157,103.704448082084,642276
934 tampines street 91,1.34533410814811,103.940122148336,520934
707 bedok north road,1.33546649823112,103.919288377804,470707
1 lorong lew lian,1.35086712646948,103.875343939672,531001
81 strathmore avenue,1.29462040658733,103.80927727367,141081
751 pasir ris street 71,1.37826106389098,103.933773566237,510751
54 marine terrace,1.30530229101584,103.915014006287,440054
21 dover crescent,1.30703602610859,103.784633269754,130021
922 hougang street 91,1.37637123592055,103.883519603693,530922
158A rivervale crescent,1.38872018812525,103.906869059805,541158
110 lorong 1 toa payoh,1.34155275067394,103.846385947783,310110
651 punggol central,1.39686683341913,103.915410431349,820651
301 shunfu road,1.34935737197469,103.838327333282,570301
782B woodlands crescent,1.44746980055218,103.803227069534,732782
112 simei street 1,1.3431095844731,103.949559595972,520112
142 lorong 2 toa payoh,1.33583774995002,103.845162997311,310142
858 tampines avenue 5,1.3542933216388,103.937594965945,520858
629 ang mo kio avenue 4,1.38010475,103.840408652998,560629
433 yishun avenue 6,1.42091180649596,103.847293288083,760433
24 hougang avenue 3,1.36551226123746,103.892085472745,530024
473 ang mo kio avenue 10,1.36305380914637,103.856846002568,560473
330 jurong east avenue 1,1.35055495259482,103.73002911041,600330
341B sembawang close,1.44798211047398,103.818506856223,752341
183D boon lay avenue,1.34909289443558,103.709041526551,644183
14 toh yi drive,1.33908702611922,103.772569349944,590014
3 saint george's road,1.3225873518737,103.861107276991,320003
2 holland avenue,1.30934498335733,103.795559353753,271002
2 chai chee road,1.32681005570681,103.922775477106,461002
683D woodlands drive 62,1.44074675290862,103.803139356416,734683
294 tampines street 22,1.35059956586076,103.954048143325,520294
477 jurong west street 41,1.34771611238472,103.725087068634,640477
455 hougang avenue 10,1.37748270574942,103.895433417962,530455
519C tampines central 8,1.35621338867608,103.939960455271,523519
178 lompang road,1.38023381201566,103.764815490957,670178
270C punggol field,1.4043154522189,103.898851831195,823270
503B canberra link,1.45038042756867,103.822061849106,752503
254 bishan street 22,1.36192324092535,103.842999164881,570254
322 tampines street 33,1.35087595592887,103.958127135791,520322
452B sengkang west way,1.39359219975011,103.873975642578,792452
82 commonwealth close,1.30422050058916,103.800400186159,140082
497B tampines street 45,1.3586829965139,103.958024469204,521497
315B yishun avenue 9,1.43193085614681,103.842565042895,762315
107A edgefield plains,1.39719879396476,103.906825785664,821107
314A anchorvale link,1.39096346792355,103.889146783177,541314
403 admiralty link,1.45391726002344,103.816130138927,750403
455B ang mo kio street 44,1.36833017912554,103.858495667837,562455
408A fernvale road,1.38876434017521,103.876211939865,791408
606 jurong west street 65,1.33793644267156,103.699282789577,640606
30 marine crescent,1.30422279476766,103.911164021354,440030
10A boon tiong road,1.28635847107695,103.82962615571,160010
323 serangoon avenue 3,1.35116857435372,103.869408469694,550323
119C kim tian road,1.28148915140735,103.827671951512,163119
183A boon lay avenue,1.34861794801802,103.709737700176,641183
167 petir road,1.37768707307101,103.765102401589,670167
247 pasir ris street 21,1.37073379068476,103.96245801481,510247
677 woodlands avenue 6,1.43938615380542,103.801706470491,730677
127 bukit batok west avenue 6,1.35185612872026,103.746076774467,650127
466 ang mo kio avenue 10,1.36581960538764,103.857061606231,560466
275A bishan street 24,1.35673539047075,103.843519752733,571275
338 bukit batok street 34,1.36355249556515,103.750948082233,650338
129A canberra street,1.44525782010492,103.832559693596,751129
711 clementi west street 2,1.30484423498146,103.76110706384,120711
180C boon lay drive,1.34842916785754,103.708720552283,643180
301D anchorvale drive,1.38840523759899,103.891301833133,544301
801C keat hong close,1.37523164152737,103.742766625186,683801
719 tampines street 72,1.35881240055992,103.935913216026,520719
519 bedok north avenue 1,1.33087614142097,103.928059854349,460519
334 sembawang close,1.44732828215134,103.81582008771,750334
535 choa chu kang street 51,1.39133994451668,103.743931875351,680535
269A punggol field,1.4031490468413,103.898975756502,821269
354 clementi avenue 2,1.31351386405455,103.770861088889,120354
153 simei street 1,1.3452227593795,103.957207660008,520153
211A compassvale lane,1.38465568677053,103.899257415602,541211
242 yishun ring road,1.43270791512175,103.840052416236,760242
317 woodlands street 31,1.43189593455214,103.776268265174,730317
661 woodlands ring road,1.43535972120665,103.798833654103,730661
650B jurong west street 61,1.33799830622318,103.696320084561,642650
207C punggol place,1.40065367495307,103.900348693368,823207
254 yishun ring road,1.43461891745071,103.840583866502,760254
72 bedok south avenue 3,1.32036659168877,103.943667906986,460072
314C anchorvale link,1.39146759994418,103.888964274249,543314
118 marsiling rise,1.43848429382173,103.780381436251,730118
26A jalan membina,1.28306228472371,103.826059892794,162026
4 holland close,1.30796826360553,103.795646462312,271004
340 clementi avenue 5,1.31872875423273,103.77007125633,120340
119 ang mo kio avenue 3,1.36956344301912,103.844698910817,560119
520 jurong west street 52,1.34609883764925,103.717876373079,640520
443 yishun avenue 11,1.42381002085379,103.844973012516,760443
256 ang mo kio avenue 4,1.37061517595951,103.83596769452,560256
808 woodlands street 81,1.44228123978512,103.78691557368,730808
264D compassvale bow,1.38154507506991,103.895943415352,544264
427 ang mo kio avenue 3,1.36931185924705,103.854550605629,560427
432A sengkang west way,1.39475047645333,103.877202311729,791432
633 pasir ris drive 3,1.37800945142578,103.940686625895,510633
230 bukit batok east avenue 3,1.34771540923723,103.754994802909,650230
450C bukit batok west avenue 6,1.35204142276072,103.743844813254,653450
177 lompang road,1.38038712496611,103.76535460069,670177
553 serangoon north avenue 3,1.37171071388476,103.871233716329,550553
683B edgedale plains,1.40470105849924,103.91498813455,822683
96 bedok north avenue 4,1.33326478123569,103.940334868697,460096
134 bedok reservoir road,1.33287858460019,103.912838489269,470134
617D punggol drive,1.40161428921505,103.912807967947,824617
508A yishun avenue 4,1.41478193236176,103.839551599391,761508
544 pasir ris street 51,1.36898105704567,103.952193730257,510544
113 pasir ris street 11,1.36805525886307,103.955767151318,510113
511 hougang avenue 10,1.37207420608508,103.888728981515,530511
842 tampines street 82,1.35173850943011,103.935952386296,520842
195B punggol road,1.40137201164347,103.906485652921,822195
123 serangoon north avenue 1,1.3669585129808,103.872593551192,550123
92 lorong 4 toa payoh,1.33807081646129,103.849457178811,310092
32 holland close,1.30618489254906,103.796881195019,270032
589 woodlands drive 16,1.42774541328112,103.795127473119,730589
57 circuit road,1.32472311721669,103.886685702383,370057
537 bukit batok street 52,1.35511516448647,103.750877888291,650537
195 bishan street 13,1.3483624977313,103.850897052933,570195
230 jurong east street 21,1.3415358326617,103.737487956254,600230
55 lorong 5 toa payoh,1.33735976862599,103.85119779562,310055
832 tampines street 82,1.350101715,103.935397838075,520832
704 west coast road,1.30634750622019,103.760538027126,120704
407A fernvale road,1.38826853302736,103.875272052202,791407
763 pasir ris street 71,1.3759541475767,103.934298958078,510763
430 choa chu kang avenue 4,1.38391802750636,103.741090395244,680430
262 jurong east street 24,1.34412714311524,103.741112405413,600262
25 telok blangah crescent,1.27633689840283,103.819194353538,090025
120D canberra crescent,1.44676707236829,103.83229420147,754120
409 bedok north avenue 2,1.32810291260758,103.932938099482,460409
577 hougang avenue 4,1.37862228656557,103.885052754822,530577
365C upper serangoon road,1.36928451336933,103.89713459868,533365
209B punggol place,1.39973051378134,103.900935406518,822209
216B compassvale drive,1.39051439660213,103.893670671714,542216
426 clementi avenue 3,1.31158040643011,103.764211279777,120426
177 woodlands street 13,1.43435791362603,103.778088434368,730177
641 yishun street 61,1.42081685421992,103.838166008926,760641
144 bishan street 12,1.34594126815113,103.853322120107,570144
19 marine terrace,1.30452210196584,103.915054010998,440019
24 marsiling drive,1.44150533051525,103.77213161946,730024
210 tampines street 23,1.35402365617519,103.953988554843,520210
162B rivervale crescent,1.39035967745112,103.908076555691,542162
257 bishan street 22,1.35971687351446,103.84310310527,570257
168D simei lane,1.34285868951136,103.958258733447,524168
133 bedok reservoir road,1.33235744118922,103.911767964622,470133
105 towner road,1.3208130428228,103.861346713506,321105
738 tampines street 72,1.35908478564757,103.933607649537,520738
664B jurong west street 64,1.33835412965274,103.703585678772,642664
739 woodlands circle,1.44422870888598,103.797025367791,730739
19 lim liak street,1.28549378363945,103.832599980169,161019
632 jurong west street 65,1.34395708826043,103.69981557618,640632
705 pasir ris drive 10,1.38058565727692,103.937747806432,510705
354 yishun ring road,1.4257859727303,103.845228101102,760354
477C upper serangoon view,1.37932250991171,103.904191032446,533477
182 bedok north road,1.3268699405257,103.941832797556,460182
533 serangoon north avenue 4,1.37453577975309,103.874598251793,550533
811 jurong west street 81,1.34633419863932,103.696531225915,640811
453 sin ming avenue,1.35904538127014,103.829898490029,570453
120B edgedale plains,1.3948377810528,103.907584681234,822120
899A woodlands drive 50,1.43580504809942,103.795253987843,730899
107 bedok north road,1.33231740745783,103.936301267285,460107
355 hougang avenue 7,1.37187581039935,103.898239488064,530355
234A sumang lane,1.40166421869052,103.891897318435,821234
469A yishun street 43,1.42469407414992,103.852385726656,761469
203 boon lay drive,1.34413570974204,103.715657464606,640203
348A yishun avenue 11,1.42735308102406,103.84121918037,761348
510 woodlands drive 14,1.43276101501459,103.78849713537,730510
350 woodlands avenue 3,1.43384228824762,103.782295006611,730350
770 woodlands drive 60,1.44646333383129,103.798737609119,730770
158 mei ling street,1.29274038365689,103.802806668414,140158
678D jurong west street 64,1.34486489552662,103.703395356177,644678
138B yuan ching road,1.32841510984309,103.724304147765,612138
616 woodlands avenue 4,1.4343227615451,103.795844279939,730616
417 pasir ris drive 6,1.37193962542694,103.955451668479,510417
63 marine drive,1.3023807015581,103.909238899358,440063
236 compassvale walk,1.3904871662738,103.899438527283,540236
140 potong pasir avenue 3,1.33381551462422,103.866824943073,350140
238 yishun ring road,1.43305109575775,103.839244217197,760238
571 ang mo kio avenue 3,1.37005501296043,103.85488055876,560571
580 woodlands drive 16,1.43058440482082,103.796276091664,730580
494G tampines street 45,1.36313376810873,103.95545857172,527494
122 ang mo kio avenue 3,1.37018860668947,103.843413231524,560122
265 yishun street 22,1.43653310907952,103.838677913372,760265
19 jalan tenteram,1.32760704104366,103.859860478714,321019
816 jellicoe road,1.30695273729599,103.861244368296,200816
676A yishun ring road,1.42145242328288,103.84332790779,761676
43 bendemeer road,1.32112499272338,103.865833285976,330043
116 lengkong tiga,1.32278533070059,103.911863013412,410116
106B bidadari park drive,1.33364211083176,103.871164760412,342106
717 woodlands drive 70,1.44084734957997,103.799421965632,730717
432 choa chu kang avenue 4,1.38464414439202,103.741833630214,680432
686 hougang street 61,1.37574544429752,103.885412786027,530686
45 marine crescent,1.30455023575131,103.912455527874,440045
30 balam road,1.32965461509134,103.887183600084,370030
236 hougang avenue 1,1.35782377502387,103.888939725858,530236
886A woodlands drive 50,1.43829151566128,103.794612853493,731886
268 yishun street 22,1.43721769707281,103.839506264439,760268
442B fajar road,1.38143384735951,103.771366304235,672442
240 bukit panjang ring road,1.37934514194061,103.771222864624,670240
46 jalan bukit ho swee,1.28829579725142,103.826144732416,160046
13 ghim moh road,1.30970737767411,103.789099862759,270013
52 teban gardens road,1.32100982297014,103.73748275185,600052
83 lorong 2 toa payoh,1.33578791220733,103.847991955843,310083
436 woodlands street 41,1.42661624805888,103.774872341652,730436
509B wellington circle,1.45328536421439,103.821213227146,752509
293 choa chu kang avenue 3,1.37817045766097,103.740252438446,680293
220A sumang lane,1.40152166566132,103.894626712465,821220
112 lengkong tiga,1.32348906535172,103.911407840981,410112
89 tanglin halt road,1.30120035372775,103.798921874569,141089
305B punggol road,1.40535191898422,103.906250675312,822305
271 queen street,1.30093267323152,103.853991004773,180271
114 yishun ring road,1.43413792566359,103.827020312888,760114
178 woodlands street 13,1.43464080601813,103.777670022616,730178
91 commonwealth drive,1.30587034566154,103.799763604345,140091
445 jurong west street 42,1.35206424277749,103.720552662265,640445
271D punggol walk,1.40351432588188,103.90089026171,824271
180A marsiling road,1.43904320861563,103.778109726656,731180
447A jalan kayu,1.3921382852483,103.872490556246,791447
448B sengkang west way,1.39341981691827,103.873319886194,792448
408 sembawang drive,1.45345895920531,103.817721249079,750408
166 hougang avenue 1,1.35117566880152,103.888195279031,530166
315A yishun avenue 9,1.43238385408312,103.842384119393,761315
115 teck whye lane,1.37893677955462,103.751182368998,680115
413 jurong west street 42,1.35327579127819,103.725111457509,640413
425 ang mo kio avenue 3,1.36912241721255,103.851616057064,560425
663B jurong west street 65,1.338132418,103.701603006284,642663
472 segar road,1.38791096329786,103.772572478235,670472
327 serangoon avenue 3,1.35059926733191,103.868514945025,550327
49 circuit road,1.32513240286821,103.885610754075,370049
366A sembawang crescent,1.4438005069825,103.816211984803,751366
273C compassvale link,1.38460679116838,103.894501889915,543273
542 hougang avenue 8,1.37695171842745,103.891748637325,530542
138A yuan ching road,1.32793696486555,103.7241782,611138
229 lorong 8 toa payoh,1.3387183120625,103.85919463592,310229
941 jurong west street 91,1.34388068772887,103.688795307632,640941
260 tampines street 21,1.35464005993806,103.950100751181,520260
714 yishun street 71,1.42701651708938,103.827662646467,760714
308B punggol walk,1.40776678175669,103.89887868051,822308
136 petir road,1.37461056095475,103.768753597677,670136
772 yishun avenue 3,1.4236387330377,103.832580045903,760772
302B anchorvale link,1.3878622433042,103.890705078823,542302
133 lorong ah soo,1.35076271020557,103.887548072787,530133
431D yishun avenue 1,1.4199690584837,103.846969476811,764431
683C choa chu kang crescent,1.40467861884756,103.746314893319,683683
193 edgefield plains,1.3999679293622,103.90901300279,820193
25 eunos crescent,1.32340331604205,103.902375742055,400025
825 yishun street 81,1.41443858649132,103.832773733482,760825
810A choa chu kang avenue 7,1.37454644083077,103.746304172261,681810
18D circuit road,1.32940434763773,103.889196979567,374018
90A telok blangah street 31,1.27773457800288,103.807093263136,101090
785B woodlands rise,1.44626945362345,103.805431688626,732785
996B buangkok crescent,1.38611330718324,103.882052260458,532996
392 bukit batok west avenue 5,1.36586608373138,103.753323280718,650392
559 ang mo kio avenue 10,1.37099810674697,103.857856391877,560559
2 toh yi drive,1.33917480423577,103.775341419034,590002
168 stirling road,1.29002050735811,103.80318804437,141168
243 tampines street 21,1.35419527444806,103.947122094105,521243
330A anchorvale street,1.39662723563942,103.889865427006,541330
758 woodlands avenue 6,1.44579329314903,103.795452666616,730758
202 choa chu kang avenue 1,1.3818369774308,103.74946480804,680202
296 tampines street 22,1.35098787549144,103.955482035159,520296
470 pasir ris drive 6,1.37381136566656,103.957589569659,510470
53 havelock road,1.2893366539636,103.828920345451,161053
353 ang mo kio street 32,1.36406807879641,103.851612284582,560353
215 marsiling lane,1.4476075755764,103.772062005139,730215
751 jurong west street 73,1.34760958144611,103.699227740175,640751
104 teck whye lane,1.37708162127187,103.752870448301,680104
609A tampines north drive 1,1.36361412499017,103.935357759734,521609
447B jalan kayu,1.39246632922429,103.873207670352,792447
684D edgedale plains,1.40365173571937,103.914094838628,824684
139 petir road,1.37534822344466,103.76965777289,670139
212C compassvale drive,1.38599316874489,103.901020686547,543212
433 tampines street 43,1.35904050139779,103.951132576329,520433
100 commonwealth crescent,1.30770527644458,103.801272476263,140100
98 whampoa drive,1.32158068709129,103.854150953187,320098
309 serangoon avenue 2,1.35380565313156,103.865214056968,550309
684B choa chu kang crescent,1.40389957807762,103.747236264641,682684
76A redhill road,1.28871631968437,103.816854593836,151076
140C corporation drive,1.32754362846391,103.724285977296,613140
620 bukit batok central,1.34970536621826,103.748403180472,650620
166A yung kuang road,1.33128810212915,103.721959330636,611166
235 bukit batok east avenue 5,1.34848352110457,103.756300449103,650235
524 woodlands drive 14,1.43264768513006,103.79367954254,730524
813 tampines street 81,1.34695081847394,103.936416159541,520813
613D punggol drive,1.40382435066928,103.908909336084,824613
102A punggol field,1.39883318313425,103.905783553043,821102
646 yishun street 61,1.42211202954084,103.837491392466,760646
100 whampoa drive,1.32077947735201,103.854348739922,320100
93B telok blangah street 31,1.27535722008159,103.807977257969,102093
324C sengkang east way,1.39254408668838,103.891776534324,543324
359 yung an road,1.33611140347869,103.721401018416,610359
648 pasir ris drive 10,1.37880739053832,103.938681928816,510648
276A jurong west street 25,1.35320439038387,103.703654377512,641276
128 ang mo kio avenue 3,1.37083202800001,103.843546990613,560128
636B punggol drive,1.4004079262324,103.913750542513,822636
519A tampines central 8,1.35727594461393,103.940381600354,521519
914 jurong west street 91,1.34145537092651,103.687970250455,640914
273B punggol place,1.40196010771339,103.901778767439,822273
114 simei street 1,1.34384910516645,103.950437525657,520114
687B woodlands drive 75,1.44188539470704,103.807161942037,732687
403D fernvale lane,1.38821938378892,103.873178887951,794403
114 serangoon north avenue 1,1.3688522558684,103.871488888571,550114
232 lorong 8 toa payoh,1.3375718690811,103.858843935428,310232
970 hougang street 91,1.37878537995761,103.880486024951,530970
609B tampines north drive 1,1.36361417117643,103.935679916041,522609
119 marsiling rise,1.43882853194834,103.780322976407,730119
449 bukit panjang ring road,1.38417096583004,103.772386971275,670449
30 cassia crescent,1.30944315518034,103.883336276334,391030
711 jurong west street 71,1.34304085872336,103.695640816169,640711
778 woodlands drive 60,1.44728214613521,103.799774503062,730778
648C jurong west street 61,1.33896761050208,103.697949800478,643648
852 jurong west street 81,1.34744620469093,103.692827944039,640852
142 simei street 2,1.34534983054841,103.955127262037,520142
636 hougang avenue 8,1.37061271157512,103.879209065676,530636
165 gangsa road,1.37685096970547,103.765123697174,670165
30 jalan klinik,1.28766976882827,103.828202949008,160030
35 eunos crescent,1.32110753889088,103.901372601594,400035
340 choa chu kang loop,1.38409830722396,103.74549899545,680340
183B rivervale crescent,1.39130624638809,103.908329711702,542183
649 ang mo kio avenue 5,1.37776263842074,103.843782193293,560649
114 whampoa road,1.3254120484659,103.857481385973,320114
213A punggol walk,1.40030900317851,103.898075134619,821213
540 ang mo kio avenue 10,1.37529376778898,103.855452425625,560540
788 choa chu kang north 6,1.39579180989479,103.748287590175,680788
158 yung loh road,1.32896082457078,103.722279551998,610158
457 clementi avenue 3,1.31179955737888,103.767250190991,120457
569 pasir ris street 51,1.36965312318782,103.949169331019,510569
225 ang mo kio avenue 1,1.36739612776859,103.838150007464,560225
736 woodlands circle,1.44283764811354,103.79681411892,730736
217 yishun street 21,1.43262267614989,103.836318733123,760217
121 yuan ching road,1.33570402533121,103.724078165253,610121
267 tampines street 21,1.35077278806368,103.9492592,520267
305B anchorvale link,1.3891951454752,103.888598523836,542305
183A rivervale crescent,1.39164106188715,103.907924031863,541183
404 bedok north avenue 3,1.32937492395032,103.933926939087,460404
675A yishun avenue 4,1.4194583236401,103.843091718209,761675
573A woodlands drive 16,1.43128103413154,103.798018240512,731573
269C compassvale link,1.38351198345381,103.896373988918,543269
473B upper serangoon crescent,1.37593845080051,103.901084524846,532473
651 hougang avenue 8,1.37253883062467,103.881113790573,530651
633 woodlands ring road,1.43558817981973,103.802367582845,730633
259A punggol field,1.40382339950391,103.895547769394,821259
690A choa chu kang crescent,1.40277627634375,103.751539941559,681690
129 bedok north street 2,1.32755443192195,103.938030484223,460129
602 senja road,1.38141822253802,103.762739370664,670602
32 teban gardens road,1.32184396296011,103.739872521955,600032
519B tampines central 8,1.35743365377488,103.940051716546,522519
33 ghim moh link,1.30977118024449,103.784714017294,270033
445A fernvale road,1.39222013843694,103.874409781406,791445
782A woodlands crescent,1.44746650320484,103.802661294631,731782
609 bedok reservoir road,1.33183921459218,103.912364855077,470609
407 tampines street 41,1.35819601830911,103.945015695225,520407
437 jurong west avenue 1,1.35157134078567,103.723964571541,640437
180 ang mo kio avenue 5,1.37667706463381,103.838361037555,560180
242 bukit batok east avenue 5,1.35095950808957,103.756233418128,650242
604 woodlands drive 42,1.4371352956954,103.796372143463,730604
694B woodlands drive 62,1.43913929900172,103.804976766892,732694
241 jurong east street 24,1.3414812934447,103.742973359591,600241
307 choa chu kang avenue 4,1.38523428420139,103.74270487573,680307
621 bedok reservoir road,1.33452745,103.916865046091,470621
239 jurong east street 21,1.34096483548865,103.74091413759,600239
13 teck whye lane,1.37894634652916,103.755847939018,680013
315A ang mo kio street 31,1.36421831526448,103.846861474806,562315
264 bukit batok east avenue 4,1.34991025839712,103.759040163588,650264
111 pasir ris street 11,1.36805791982647,103.956378453152,510111
210A punggol place,1.40006828077946,103.900399322855,821210
310B punggol walk,1.40932267495625,103.900801836373,822310
522C tampines central 7,1.35800481305316,103.939416135735,523522
10 joo seng road,1.33461833377097,103.88016502252,360010
315B punggol way,1.40795602683384,103.896400767911,822315
32 ghim moh link,1.3100634072092,103.784498087029,271032
472A fernvale street,1.39740224240408,103.881338084424,791472
138 potong pasir avenue 3,1.33356221015123,103.865458562014,350138
1 beach road,1.3036713506088,103.864478660925,190001
307 shunfu road,1.35048016607758,103.838771255828,570307
157 simei road,1.34462159576141,103.959417493708,520157
669A edgefield plains,1.40490974914062,103.913969471596,821669
404 pandan gardens,1.31981661286798,103.749283319022,600404
612 woodlands avenue 4,1.43508189271048,103.796733054808,730612
416 choa chu kang avenue 4,1.38334049587446,103.742083284398,680416
38 jalan rumah tinggi,1.28863365915922,103.809643901495,150038
275A jurong west street 25,1.35241293267711,103.702221239788,641275
310A punggol walk,1.40870088870466,103.901326604714,821310
490 admiralty link,1.45529973571916,103.817240683169,750490
104 jalan rajah,1.32780496961457,103.853262284564,321104
352 tampines street 33,1.35416527536518,103.962442566422,520352
659A punggol east,1.40057277879052,103.919657048683,821659
308 jurong east street 32,1.34730790760381,103.734583963199,600308
423 clementi avenue 1,1.30945612208303,103.769918822857,120423
170 bukit batok west avenue 8,1.34655585025652,103.740101500639,650170
236 tampines street 21,1.35590516879669,103.947447486706,520236
137 yishun ring road,1.43198319567796,103.830253382367,760137
302B punggol place,1.40437493103842,103.904784032402,822302
550 ang mo kio avenue 10,1.37360769512088,103.85820494173,560550
986A buangkok crescent,1.3819169455989,103.87980371499,531986
202 ang mo kio avenue 3,1.36844644010937,103.844516260527,560202
211 boon lay place,1.34824122465841,103.7140979,640211
555 pasir ris street 51,1.36800821938076,103.95190995946,510555
113 hougang avenue 1,1.35356905255693,103.888705665044,530113
538 jurong west avenue 1,1.34999389867275,103.71547303846,640538
27 new upper changi road,1.32412432931246,103.934921045772,462027
430D fernvale link,1.3948267807044,103.878003319945,794430
627 woodlands avenue 6,1.43348537327986,103.801180391147,730627
461B bukit batok west avenue 8,1.35521232611038,103.740183600705,652461
625 jurong west street 61,1.34152011714806,103.698796952856,640625
539 jurong west avenue 1,1.35087571532422,103.716353293406,640539
56 geylang bahru,1.32364514773996,103.868295292623,330056
307B anchorvale road,1.38954465344023,103.887443517634,542307
593A montreal link,1.45154716074707,103.827907536375,751593
20 jalan membina,1.28562459787443,103.825923251122,164020
266B compassvale bow,1.38257935947972,103.897225252377,542266
124 yishun street 11,1.43459030044018,103.831139296919,760124
550A segar road,1.38911206246444,103.767301515652,671550
621 choa chu kang street 62,1.39914640891261,103.747205206781,680621
183 jelebu road,1.3799638356862,103.763048292356,670183
416C fernvale link,1.38979947929697,103.88064410102,793416
998A buangkok crescent,1.38375782968293,103.880172193688,531998
617 woodlands avenue 4,1.43389740955882,103.795730926437,730617
401 ang mo kio avenue 10,1.36101765642805,103.855387562453,560401
239 lorong 1 toa payoh,1.34050894159915,103.851040712112,310239
217B sumang walk,1.40240161394664,103.894934988835,822217
173A punggol field,1.39701308622338,103.909354092412,821173
492 admiralty link,1.4564743178621,103.81718135862,750492
11 chai chee road,1.32691137466792,103.924883893296,460011
465 upper serangoon road,1.37190788342411,103.897012927498,530465
314 ubi avenue 1,1.32929452580121,103.903634766965,400314
10 jalan kukoh,1.2869738344398,103.839075823483,162010
65 kallang bahru,1.31969547154613,103.868364964604,330065
312C clementi avenue 4,1.31952267914453,103.764025116013,123312
17 marsiling lane,1.44267823126467,103.77772450872,730017
420 bukit batok west avenue 2,1.36255043035847,103.745770795352,650420
99C lorong 2 toa payoh,1.33901612961753,103.84744935603,312099
75 telok blangah drive,1.27489670852233,103.808695347879,100075
174 woodlands street 13,1.43333288494876,103.777755663812,730174
691B woodlands drive 73,1.44029961420554,103.805892481401,732691
715 jurong west street 71,1.34374461019775,103.696418783167,640715
633A senja road,1.38558640738414,103.758340839001,671633
772 bedok reservoir view,1.3364625679398,103.937895451472,470772
355 kang ching road,1.33857345707862,103.72083578038,610355
144 serangoon north avenue 1,1.36778139173336,103.873041279529,550144
897A tampines street 81,1.34752649765261,103.935183992573,521897
10A bendemeer road,1.31499138887312,103.86050538635,331010
794 yishun ring road,1.4199655220838,103.832204393262,760794
266 boon lay drive,1.34610310609749,103.706312723846,640266
268C punggol field,1.40347414894291,103.897938437602,823268
171 woodlands street 11,1.43397497861501,103.776526806695,730171
30 ghim moh link,1.30881985260159,103.783839,272030
293A bukit batok street 21,1.34593565587377,103.754650908839,651293
709 clementi west street 2,1.30533046157853,103.762003588469,120709
303A punggol central,1.40377789364189,103.905762206365,821303
676C yishun ring road,1.42148524765995,103.842476163593,763676
438C bukit batok west avenue 8,1.35775731757846,103.739408616622,653438
359A admiralty drive,1.44966317668208,103.815544863508,751359
21 eunos crescent,1.32503135532498,103.903282423724,400021
525B pasir ris street 51,1.3695904828869,103.947455951519,512525
397 yishun avenue 6,1.42788611422625,103.847541026169,760397
749 woodlands circle,1.44453455130133,103.794468979411,730749
204D compassvale drive,1.38765175971489,103.895336027145,544204
12C marsiling lane,1.44108587711762,103.777781234398,733012
1 ghim moh road,1.31287975684307,103.786855017635,270001
854 jurong west street 81,1.34731625275917,103.69606144333,640854
560 pasir ris street 51,1.36676413373262,103.950422811328,510560
22 havelock road,1.28874603704088,103.828824191655,160022
648D jurong west street 61,1.33943036999687,103.697683971767,644648
394 tampines avenue 7,1.35519244916702,103.956061489556,520394
18 marine terrace,1.30320858339073,103.914300755467,440018
505 woodlands drive 14,1.43219452634829,103.791155512188,730505
112 bedok north road,1.33104907831935,103.935538768198,460112
332 serangoon avenue 3,1.35101719466947,103.870185119998,550332
345 bukit batok street 34,1.36284881503816,103.750843242288,650345
483 pasir ris drive 4,1.37404167538311,103.95999917309,510483
141 simei street 2,1.34585135529578,103.955069793124,520141
245 tampines street 21,1.35320840937901,103.946489840363,521245
201 marsiling drive,1.44270022874362,103.775436532502,730201
194 rivervale drive,1.39260955810937,103.901592560709,540194
409 bukit batok west avenue 4,1.36448899593886,103.745816406222,650409
607 jurong west street 65,1.33797491687292,103.699697593715,640607
53 commonwealth drive,1.30205878257013,103.796581739102,142053
550B segar road,1.389591186,103.76744702208,672550
334A anchorvale crescent,1.39838638603313,103.889425801052,541334
285C toh guan road,1.33788841388717,103.746604056124,603285
316 tampines street 33,1.35153799844878,103.957579533326,520316
436C fernvale road,1.39231468377271,103.876970188022,793436
216 bukit batok street 21,1.3471050066434,103.753638622774,650216
549 jurong west street 42,1.35291393924454,103.716072724817,640549
34 eunos crescent,1.32101348298356,103.900972794677,400034
987C buangkok green,1.37932814973617,103.877789198004,533987
304 shunfu road,1.35012170474224,103.837942388222,570304
2 beach road,1.30403300585898,103.864928408355,190002
450 clementi avenue 3,1.313538861,103.765476305204,120450
549 bedok north avenue 1,1.33170722124155,103.926779952744,460549
656C jurong west street 61,1.33598955071785,103.69997420624,643656
256 tampines street 21,1.35323572708512,103.949946614899,522256
817C keat hong link,1.37756652387037,103.748989532974,683817
467A fernvale link,1.39798359035227,103.878459,791467
365 yishun ring road,1.42924779338166,103.845192240134,760365
760 pasir ris street 71,1.37640020264297,103.933539788895,510760
115 bukit batok west avenue 6,1.34918319745272,103.746566795213,650115
493B tampines avenue 9,1.36226589882023,103.95206009759,521493
942 hougang street 92,1.37328587053884,103.880413624286,530942
173 ang mo kio avenue 4,1.37531353711244,103.836245672487,560173
152 rivervale crescent,1.39177826776401,103.906213093122,540152
634 bedok reservoir road,1.33016740105574,103.904849291949,410634
588A montreal drive,1.45035683378178,103.825726692093,751588
102 rivervale walk,1.38180761026047,103.900893229708,540102
32 bedok south avenue 2,1.32262578075749,103.937815786523,460032
34 telok blangah way,1.27351780057463,103.822480988448,090034
218 jurong east street 21,1.34033241177285,103.737928007136,600218
818B choa chu kang avenue 1,1.37725874802106,103.748291851205,682818
274B compassvale bow,1.38192277086883,103.890875719274,542274
218 bukit batok street 21,1.34729576455327,103.754196011432,650218
893 tampines avenue 8,1.34847087534367,103.930228303778,520893
329 bukit batok street 33,1.36312633682463,103.747418527269,650329
349 yishun avenue 11,1.42613375072405,103.843391520362,760349
127A kim tian road,1.28196243466081,103.829559141133,161127
488D choa chu kang avenue 5,1.37642221610651,103.740504704448,684488
408 serangoon avenue 1,1.34724731259566,103.873453024365,550408
54 teban gardens road,1.32159846468451,103.736923103215,600054
715 yishun street 71,1.42638911318203,103.826910837812,760715
261B sengkang east way,1.39349432451651,103.894408242074,542261
318B yishun avenue 9,1.43367833611169,103.843871260947,762318
77A redhill road,1.28838106670584,103.817391094217,151077
678 hougang avenue 8,1.37084076394573,103.884236382077,530678
469C sengkang west way,1.39632353747039,103.877422028405,793469
166A teck whye crescent,1.38329360087486,103.753025884378,681166
3 holland close,1.30820871253395,103.796638881502,271003
351 yishun avenue 11,1.42642931598565,103.84407212872,760351
117 simei street 1,1.34458555119791,103.951315573207,520117
8 empress road,1.31641190098174,103.805373811937,260008
414 hougang avenue 10,1.37490432858877,103.895995982843,530414
553 pasir ris street 51,1.36797543702573,103.952769232866,510553
488 admiralty link,1.45507803962368,103.81645291747,750488
542 bedok north street 3,1.33066590908483,103.922843972485,460542
180B marsiling road,1.43905659750822,103.778349763028,732180
728 clementi west street 2,1.30520206759029,103.763833368922,120728
501 bedok north street 3,1.33164071248973,103.931167665142,460501
213 lorong 8 toa payoh,1.34100493622927,103.85441254396,310213
477B upper serangoon view,1.37881205219672,103.904229621366,532477
195 pasir ris street 12,1.36639650930501,103.960047020433,510195
883 tampines street 84,1.35185622978388,103.932939029289,520883
77 telok blangah drive,1.27394153200448,103.808817449676,100077
272D sengkang central,1.38393100526784,103.893564426812,544272
936 tampines avenue 5,1.3464819949059,103.941699826556,520936
5 lorong lew lian,1.35003202767253,103.876841832334,530005
180 lompang road,1.37885365730573,103.764775595893,670180
791 woodlands avenue 6,1.44274810998096,103.802238461647,730791
851 woodlands street 83,1.44046011981824,103.79267558158,730851
410 yishun ring road,1.4263498262218,103.846574295234,760410
682 choa chu kang crescent,1.4025105391984,103.745291155566,680682
332C anchorvale link,1.39500219567352,103.891960984474,543332
248 hougang avenue 3,1.35937034964577,103.892587549209,530248
623 jurong west street 61,1.34032757892166,103.698247310085,640623
233 serangoon avenue 3,1.3551338137075,103.869137347738,550233
184C rivervale crescent,1.39266579969396,103.907716745628,543184
123 geylang east central,1.31817735130958,103.885425829984,380123
46 jalan bahagia,1.32764653125141,103.85692208244,320046
663 choa chu kang crescent,1.40198475097106,103.750788391041,680663
190 bukit batok west avenue 6,1.3453856199951,103.746045480153,650190
515C tampines central 7,1.3569678017343,103.938986535158,523515
489 admiralty link,1.45495119192133,103.816819778829,750489
651A jurong west street 61,1.33707182045034,103.697938258178,641651
561A jurong west street 42,1.35429411,103.719755141086,641561
352B canberra road,1.45029896549211,103.819814828234,752352
395 bukit batok west avenue 5,1.36631689866947,103.752287629198,650395
524 bukit batok street 52,1.35722338885356,103.752654717899,650524
15 ghim moh road,1.30914384256219,103.788419918626,270015
671A edgefield plains,1.40605924173081,103.912020670376,821671
643 punggol central,1.39731946011017,103.916018571836,820643
352 yishun ring road,1.42646254168399,103.844908930783,760352
37 teban gardens road,1.32053143645806,103.742652199249,600037
729 clementi west street 2,1.30492724290307,103.763519401903,120729
116 lorong 2 toa payoh,1.34047287241805,103.846142516335,310116
321 woodlands street 32,1.43188553711066,103.779323207159,730321
36 cassia crescent,1.30982050865202,103.885072242608,390036
821 jurong west street 81,1.34699810840798,103.69452875928,640821
637A punggol drive,1.39969367240436,103.91459704801,821637
453D fernvale road,1.39341707295426,103.875340178233,794453
141 yishun ring road,1.43089700238255,103.830000816371,760141
121D sengkang east way,1.38579521121651,103.905413958592,544121
406 pandan gardens,1.318821473,103.74922637213,600406
70 bedok south road,1.31996943548307,103.94281863033,460070
703 yishun avenue 5,1.42958489778701,103.828851112708,760703
411B fernvale road,1.39016261835765,103.877056202025,792411
207 boon lay place,1.34658610279641,103.71356835409,640207
233 ang mo kio avenue 3,1.36754924977907,103.836740628478,560233
616 senja road,1.38482207165437,103.761181895733,670616
184 stirling road,1.29560954714992,103.804472923985,140184
677 choa chu kang crescent,1.40151021475963,103.745481871107,680677
411 hougang avenue 10,1.37409413946214,103.895312625321,530411
329 tampines street 32,1.35335552120961,103.958728583436,520329
606 bedok reservoir road,1.33122227931301,103.913799873642,470606
410A fernvale road,1.39005269523174,103.875940509386,791410
152 lorong 2 toa payoh,1.33416708512554,103.845891140252,310152
410B fernvale road,1.38978938889476,103.876096713603,792410
57 new upper changi road,1.32424554153984,103.941568704132,461057
558 ang mo kio avenue 10,1.37123613284274,103.859192016193,560558
728 yishun street 71,1.4257896294341,103.830526963765,760728
29 marine crescent,1.3028498362788,103.913197165824,440029
686A jurong west central 1,1.34174841752629,103.704794256868,641686
787E woodlands crescent,1.44492134030396,103.80229706643,735787
520A tampines central 8,1.35701024664546,103.939911246503,521520
506 ang mo kio avenue 8,1.37440041920745,103.84893617353,560506
59 strathmore avenue,1.29318964398969,103.81125258838,142059
614A tampines north drive 1,1.36489478768898,103.936692419369,521614
58 lorong 4 toa payoh,1.33674625537365,103.850524640565,310058
897B woodlands drive 50,1.43605136306912,103.793998410947,731897
987A jurong west street 93,1.33652389687164,103.694493942627,641987
575 ang mo kio avenue 10,1.37138855070768,103.855953346739,560575
826 tampines street 81,1.349339646,103.933610807865,520826
548B segar road,1.38942073606675,103.768573656612,672548
417 clementi avenue 1,1.31022566649471,103.770901847179,120417
626 jurong west street 65,1.34184739328867,103.698516715611,640626
369 bukit batok street 31,1.36002945983661,103.751072294962,650369
422 canberra road,1.45343668669671,103.818449528171,750422
468A fernvale link,1.39747908543717,103.878500081571,791468
243 yishun ring road,1.43352112990914,103.840627148063,760243
679C jurong west central 1,1.34392315743643,103.706395562005,643679
7 lorong 7 toa payoh,1.33805369690152,103.857286902601,310007
334 ubi avenue 1,1.32639446873503,103.903071539258,400334
707 clementi west street 2,1.30628748271347,103.762394965532,120707
776 woodlands crescent,1.44806964071842,103.799762634431,730776
319C anchorvale drive,1.39088901071724,103.89063413206,543319
498A tampines street 45,1.36154056659103,103.958057419898,520498
526A pasir ris street 51,1.36754162355292,103.947105433712,511526
273A bishan street 24,1.35636621091925,103.843933964667,571273
405 pandan gardens,1.31923420667707,103.749654325298,600405
646 jalan tenaga,1.33127394793618,103.906171497468,410646
208B punggol place,1.40136153880902,103.901127199853,822208
685B choa chu kang crescent,1.40363737705198,103.748176927162,682685
673C edgefield plains,1.40722159434779,103.910591907295,823673
269 tampines street 21,1.35074543601676,103.948024392634,520269
141 tampines street 12,1.34824895315275,103.944920713854,521141
757 woodlands avenue 4,1.44621010221646,103.794598549906,730757
205 pasir ris street 21,1.36693709353527,103.962939357935,510205
324 tampines street 32,1.35238834231733,103.959443360689,520324
501A wellington circle,1.45176919565749,103.820781714095,751501
207 bishan street 23,1.35464222026017,103.848183306018,570207
911 tampines street 91,1.34983189105156,103.939568613828,520911
485 segar road,1.38868132378093,103.771312569429,670485
448C bukit batok west avenue 9,1.35272258284343,103.741240002444,653448
551 woodlands drive 44,1.4331489121414,103.795209587547,730551
167B simei lane,1.34313573705442,103.959642800881,522167
159 bedok south avenue 3,1.31904563538918,103.945624497023,460159
308 bukit batok street 31,1.35855029163425,103.748104679144,650308
317 hougang avenue 7,1.36529966178088,103.896454800013,530317
126 pending road,1.37636193636024,103.769918847342,670126
289B punggol place,1.4013435609028,103.90312699575,822289
235 yishun street 21,1.43422889283755,103.838543994351,760235
189 bukit batok west avenue 6,1.34579573207282,103.746340146543,650189
706 clementi west street 2,1.30676076028652,103.762363136976,120706
654 senja road,1.38784692769514,103.764249296909,670654
322 sembawang close,1.44555988914785,103.818296366915,750322
603 senja road,1.38153645835758,103.762138791815,670603
178B rivervale crescent,1.38854689304718,103.910034044279,542178
546 choa chu kang street 52,1.39301282897146,103.743262359418,680546
70C telok blangah heights,1.2759961853765,103.810862988227,103070
886B woodlands drive 50,1.43825809969323,103.794115487248,732886
618 ang mo kio avenue 4,1.37795244011691,103.83844686462,560618
698B hougang street 61,1.37480681507579,103.887708468033,532698
163 bishan street 13,1.34802295169562,103.856274981004,570163
509A yishun avenue 4,1.41371070675887,103.839528173264,761509
979B buangkok crescent,1.37951135577177,103.879376827002,532979
359 bukit batok street 31,1.36134370379955,103.75123068355,650359
128 lorong ah soo,1.35172355247142,103.886487164914,530128
690C woodlands drive 75,1.44298235333791,103.807978941276,733690
110 yishun ring road,1.43376057937716,103.828993389444,760110
203 jurong east street 21,1.33683389097317,103.742544497471,600203
589D montreal drive,1.44984328065002,103.824378409707,754589
326 yishun ring road,1.42955104737326,103.84243972426,760326
621 jurong west street 65,1.34094640873732,103.699525431571,640621
5 telok blangah crescent,1.27872402905423,103.819220384802,090005
204 toa payoh north,1.34148414007449,103.849067723667,310204
132 edgedale plains,1.3930694988303,103.910698497279,820132
103 spottiswoode park road,1.27466096925721,103.835279824837,080103
540 woodlands drive 16,1.42823664623608,103.792686921807,730540
304B anchorvale link,1.38865003717567,103.889215386426,542304
2B geylang serai,1.31740511166912,103.89777455271,404002
605 bedok reservoir road,1.33023693207314,103.913508109392,470605
708 pasir ris drive 10,1.38118597273519,103.938981598716,510708
556 jurong west street 42,1.35362210304169,103.717858506741,640556
850 jurong west street 81,1.34643121945213,103.691940382317,640850
458 pasir ris drive 4,1.37141488256463,103.959637410427,510458
23B queen's close,1.29407333493258,103.800026532056,141023
125 yishun street 11,1.4339506942268,103.830439843368,760125
106 jalan dusun,1.32855771177594,103.844796773619,320106
458 jurong west street 41,1.35021069322065,103.720031948834,640458
236 serangoon avenue 3,1.35424006743426,103.869821831929,550236
909 jurong west street 91,1.34117518124864,103.68645214091,640909
419 tampines street 41,1.35783252178817,103.946726918914,520419
2 dover road,1.30310343884227,103.782905027596,130002
538 ang mo kio avenue 5,1.37559336678106,103.853347801104,560538
592C montreal link,1.45093931289388,103.828070545183,753592
121C canberra street,1.44744539468374,103.834503117404,753121
